stop_id,stop_code,stop_name,stop_desc,stop_lat,stop_lon,zone_id,stop_url,location_type,parent_station,stop_timezone,wheelchair_boarding,geometry,index_right,bairro
10,,"AVENIDA CEL CARVALHO, 1135",,-3.702286,-38.590602,,,0,,,,POINT (-38.590602 -3.702286),59.0,BARRA DO CEARÁ
1000,,"RUA DOR JOAO MOREIRA, 489",,-3.722157,-38.528991,,,0,,,,POINT (-38.528991 -3.722157),24.0,CENTRO
1001,,"RUA DOR JOAO MOREIRA, 163",,-3.723169,-38.526007,,,0,,,,POINT (-38.526007 -3.723169),24.0,CENTRO
1010,,"AVENIDA IMPERADOR, 550",,-3.726137,-38.534206,,,0,,,,POINT (-38.534206 -3.726137),24.0,CENTRO
1013,,"AVENIDA IMPERADOR, 262",,-3.72369,-38.533477,,,0,,,,POINT (-38.533477 -3.72369),24.0,CENTRO
1014,,"RUA SAO PAULO, 955",,-3.723879,-38.534034,,,0,,,,POINT (-38.534034 -3.723879),24.0,CENTRO
1015,,"RUA GUILHERME ROCHA, 1048",,-3.724543,-38.535467,,,0,,,,POINT (-38.535467 -3.724543),24.0,CENTRO
102,,"RUA BETA, 202",,-3.71436,-38.600778,,,0,,,,POINT (-38.600778 -3.71436),86.0,VILA VELHA
1025,,"RUA CASTRO E SILVA, 409",,-3.723266,-38.529181,,,0,,,,POINT (-38.529181 -3.723266),24.0,CENTRO
1029,,"AVENIDA TRISTAO GONCALVES, 211",,-3.723792,-38.532204,,,0,,,,POINT (-38.532204 -3.723792),24.0,CENTRO
103,,"RUA DOR QUIXADA FELICIO, 441",,-3.709547,-38.597229,,,0,,,,POINT (-38.597229 -3.709547),86.0,VILA VELHA
1030,,"RUA CASTRO E SILVA, 181",,-3.723972,-38.527042,,,0,,,,POINT (-38.527042 -3.723972),24.0,CENTRO
1032,,"RUA CASTRO E SILVA, 38",,-3.724408,-38.525696,,,0,,,,POINT (-38.525696 -3.724408),24.0,CENTRO
1033,,"RUA SENA MADUREIRA, 761",,-3.725933,-38.525604,,,0,,,,POINT (-38.525604 -3.725933),24.0,CENTRO
1037,,"RUA DES GEMINIANO JUREMA, 85",,-3.768659,-38.438854,,,0,,,,POINT (-38.438854 -3.768659),73.0,PRAIA DO FUTURO II
1038,,"RUA MIRTES CORDEIRO, 3720",,-3.781905,-38.622155,,,0,,,,POINT (-38.622155 -3.781905),91.0,GRANJA LISBOA
1043,,"AVENIDA H CJ CEARA, 3437",,-3.77688,-38.620167,,,0,,,,POINT (-38.620167 -3.77688),47.0,CONJUNTO CEARÁ II
1044,,"AVENIDA H CJ CEARA, 3439",,-3.776907,-38.620458,,,0,,,,POINT (-38.620458 -3.776907),47.0,CONJUNTO CEARÁ II
1045,,"AVENIDA J CJ CEARA, 291",,-3.776393,-38.621114,,,0,,,,POINT (-38.621114 -3.776393),47.0,CONJUNTO CEARÁ II
1046,,"AVENIDA J CJ CEARA, 1015",,-3.776785,-38.621323,,,0,,,,POINT (-38.621323 -3.776785),47.0,CONJUNTO CEARÁ II
1047,,"AVENIDA J CJ CEARA, 1015",,-3.775592,-38.62069,,,0,,,,POINT (-38.62069 -3.775592),47.0,CONJUNTO CEARÁ II
1048,,"AVENIDA J CJ CEARA, 2898",,-3.773589,-38.619656,,,0,,,,POINT (-38.619656 -3.773589),47.0,CONJUNTO CEARÁ II
1049,,"AVENIDA H CJ CEARA, 2285",,-3.776681,-38.6181,,,0,,,,POINT (-38.6181 -3.776681),47.0,CONJUNTO CEARÁ II
1050,,"AVENIDA H CJ CEARA, 2280 B",,-3.776688,-38.618163,,,0,,,,POINT (-38.618163 -3.776688),47.0,CONJUNTO CEARÁ II
1052,,"AVENIDA H CJ CEARA, 1991 A",,-3.776489,-38.616184,,,0,,,,POINT (-38.616184 -3.776489),47.0,CONJUNTO CEARÁ II
1053,,"AVENIDA H CJ CEARA, 1992",,-3.776471,-38.616026,,,0,,,,POINT (-38.616026 -3.776471),47.0,CONJUNTO CEARÁ II
1054,,"AVENIDA C CJ CEARA, 2104",,-3.776336,-38.616402,,,0,,,,POINT (-38.616402 -3.776336),47.0,CONJUNTO CEARÁ II
1055,,"AVENIDA C CJ CEARA, 1799",,-3.774291,-38.615799,,,0,,,,POINT (-38.615799 -3.774291),47.0,CONJUNTO CEARÁ II
1056,,"AVENIDA C CJ CEARA, 1799",,-3.774166,-38.615762,,,0,,,,POINT (-38.615762 -3.774166),47.0,CONJUNTO CEARÁ II
1057,,"AVENIDA H CJ CEARA, 1802",,-3.776331,-38.614678,,,0,,,,POINT (-38.614678 -3.776331),47.0,CONJUNTO CEARÁ II
1058,,"AVENIDA SOUSA CARVALHO, 3619",,-3.776277,-38.614124,,,0,,,,POINT (-38.614124 -3.776277),47.0,CONJUNTO CEARÁ II
106,,"RUA BENU MARCONDES, 600",,-3.711873,-38.599268,,,0,,,,POINT (-38.599268 -3.711873),86.0,VILA VELHA
1060,,"AVENIDA H CJ CEARA, 1610",,-3.776121,-38.612759,,,0,,,,POINT (-38.612759 -3.776121),47.0,CONJUNTO CEARÁ II
1061,,"AVENIDA H CJ CEARA, 1476 A",,-3.77595,-38.611242,,,0,,,,POINT (-38.611242 -3.77595),47.0,CONJUNTO CEARÁ II
1062,,"AVENIDA 343 A CJ CEARA, 1456",,-3.775941,-38.611194,,,0,,,,POINT (-38.611194 -3.775941),47.0,CONJUNTO CEARÁ II
1063,,"RUA BARRA VERMELHA, 2362 A",,-3.77774,-38.611989,,,0,,,,POINT (-38.611989 -3.77774),91.0,GRANJA LISBOA
1069,,"RUA IRACEMA, 930",,-3.845492,-38.528994,,,0,,,,POINT (-38.528994 -3.845492),55.0,CONJUNTO PALMEIRAS
107,,"RUA BENU MARCONDES, 421",,-3.712199,-38.597806,,,0,,,,POINT (-38.597806 -3.712199),86.0,VILA VELHA
1070,,"RUA ANGELA DINIZ, 930",,-3.845384,-38.528904,,,0,,,,POINT (-38.528904 -3.845384),55.0,CONJUNTO PALMEIRAS
1077,,"AVENIDA EDILSON B SOARES, 1471",,-3.788761,-38.472513,,,0,,,,POINT (-38.472513 -3.788761),27.0,EDSON QUEIROZ
1079,,"AVENIDA WASHINGTON SOARES, 3840",,-3.789997,-38.48055,,,0,,,,POINT (-38.48055 -3.789997),3.0,PARQUE MANIBURA
1080,,"AVENIDA WASHINGTON SOARES, 3340",,-3.787602,-38.480602,,,0,,,,POINT (-38.480602 -3.787602),27.0,EDSON QUEIROZ
1082,,"AVENIDA WASHINGTON SOARES, SN",,-3.785908,-38.480994,,,0,,,,POINT (-38.480994 -3.785908),76.0,ENGENHEIRO LUCIANO CAVALCANTE
1083,,"AVENIDA WASHINGTON SOARES, SN",,-3.7826,-38.481153,,,0,,,,POINT (-38.481153 -3.7826),76.0,ENGENHEIRO LUCIANO CAVALCANTE
1084,,"AVENIDA WASHINGTON SOARES, SN",,-3.782528,-38.481016,,,0,,,,POINT (-38.481016 -3.782528),76.0,ENGENHEIRO LUCIANO CAVALCANTE
1085,,"RUA ESTRADA DA URUCUTUBA, 2181",,-3.798755,-38.616675,,,0,,,,POINT (-38.616675 -3.798755),91.0,GRANJA LISBOA
1086,,"RUA ESTRADA DA URUCUTUBA, 2191",,-3.79883,-38.616669,,,0,,,,POINT (-38.616669 -3.79883),100.0,SIQUEIRA
1087,,"RUA NS 02 RES BOM JARDIM, 163",,-3.798528,-38.617369,,,0,,,,POINT (-38.617369 -3.798528),91.0,GRANJA LISBOA
1089,,"ESTRADA DA URUCUTUBA, 1956",,-3.798536,-38.614211,,,0,,,,POINT (-38.614211 -3.798536),100.0,SIQUEIRA
1090,,"ESTRADA DA URUCUTUBA, 1966",,-3.798441,-38.614158,,,0,,,,POINT (-38.614158 -3.798441),91.0,GRANJA LISBOA
1091,,"ESTRADA DA URUCUTUBA, 1758",,-3.798107,-38.612021,,,0,,,,POINT (-38.612021 -3.798107),91.0,GRANJA LISBOA
1092,,"ESTRADA DA URUCUTUBA, 1795",,-3.798204,-38.612187,,,0,,,,POINT (-38.612187 -3.798204),100.0,SIQUEIRA
1093,,"RUA BARRA MANSA, 342",,-3.79565,-38.611507,,,0,,,,POINT (-38.611507 -3.79565),91.0,GRANJA LISBOA
1094,,"RUA BARRA MANSA, 638",,-3.794767,-38.614231,,,0,,,,POINT (-38.614231 -3.794767),91.0,GRANJA LISBOA
1095,,"RUA FRANCISCO PAIVA, 1032",,-3.791265,-38.614406,,,0,,,,POINT (-38.614406 -3.791265),91.0,GRANJA LISBOA
1096,,"RUA FRANCISCO PAIVA, 1034",,-3.791007,-38.614329,,,0,,,,POINT (-38.614329 -3.791007),91.0,GRANJA LISBOA
1097,,"RUA FRANCISCO PAIVA, 1326",,-3.793495,-38.615116,,,0,,,,POINT (-38.615116 -3.793495),91.0,GRANJA LISBOA
1098,,"RUA FRANCISCO PAIVA, 1430",,-3.794798,-38.615538,,,0,,,,POINT (-38.615538 -3.794798),91.0,GRANJA LISBOA
1099,,"ESTRADA DA URUCUTUBA, SN",,-3.799186,-38.619215,,,0,,,,POINT (-38.619215 -3.799186),91.0,GRANJA LISBOA
11,,"AVENIDA CEL CARVALHO, 116",,-3.703397,-38.591645,,,0,,,,POINT (-38.591645 -3.703397),86.0,VILA VELHA
1100,,"AVENIDA WASHINGTON SOARES, SN",,-3.791062,-38.480304,,,0,,,,POINT (-38.480304 -3.791062),119.0,SAPIRANGA / COITÉ
1101,,"AVENIDA WASHINGTON SOARES, S/N",,-3.794761,-38.479932,,,0,,,,POINT (-38.479932 -3.794761),119.0,SAPIRANGA / COITÉ
1104,,"AVENIDA ENG LEAL LIMA VERDE, 565",,-3.793306,-38.475911,,,0,,,,POINT (-38.475911 -3.793306),119.0,SAPIRANGA / COITÉ
1105,,"AVENIDA GOMES DE FREITAS, 2985",,-3.79549,-38.47757,,,0,,,,POINT (-38.47757 -3.79549),119.0,SAPIRANGA / COITÉ
1106,,"RUA CEL OLEGARIO MEMORIA, 1602",,-3.791412,-38.47389,,,0,,,,POINT (-38.47389 -3.791412),119.0,SAPIRANGA / COITÉ
1107,,"AVENIDA SAPIRANGA, 465",,-3.791415,-38.47106,,,0,,,,POINT (-38.47106 -3.791415),119.0,SAPIRANGA / COITÉ
1108,,"RUA EUCLIDES O DE SOUSA, 935",,-3.797549,-38.471963,,,0,,,,POINT (-38.471963 -3.797549),119.0,SAPIRANGA / COITÉ
1109,,"RUA EUCLIDES O DE SOUSA, 880",,-3.79769,-38.473567,,,0,,,,POINT (-38.473567 -3.79769),119.0,SAPIRANGA / COITÉ
1110,,"RUA EUCLIDES O DE SOUSA, 451",,-3.797898,-38.475842,,,0,,,,POINT (-38.475842 -3.797898),119.0,SAPIRANGA / COITÉ
1111,,"RUA EUCLIDES O DE SOUSA, 301",,-3.798098,-38.478236,,,0,,,,POINT (-38.478236 -3.798098),119.0,SAPIRANGA / COITÉ
1112,,"AVENIDA WASHINGTON SOARES, 4600",,-3.799236,-38.479559,,,0,,,,POINT (-38.479559 -3.799236),119.0,SAPIRANGA / COITÉ
1113,,"AVENIDA WASHINGTON SOARES, 4393",,-3.796708,-38.479977,,,0,,,,POINT (-38.479977 -3.796708),33.0,CAMBEBA
1114,,"AVENIDA OLIVEIRA PAIVA, 2885",,-3.795625,-38.479096,,,0,,,,POINT (-38.479096 -3.795625),119.0,SAPIRANGA / COITÉ
1116,,"AVENIDA I CJ JOSE WALTER, 360",,-3.827377,-38.551411,,,0,,,,POINT (-38.551411 -3.827377),96.0,PREFEITO JOSÉ WALTER
1117,,"AVENIDA I CJ JOSE WALTER, 890",,-3.829824,-38.552161,,,0,,,,POINT (-38.552161 -3.829824),96.0,PREFEITO JOSÉ WALTER
1118,,"AVENIDA I CJ JOSE WALTER, 670",,-3.82989,-38.552181,,,0,,,,POINT (-38.552181 -3.82989),96.0,PREFEITO JOSÉ WALTER
1119,,"AVENIDA L CJ JOSE WALTER, 390",,-3.828096,-38.556639,,,0,,,,POINT (-38.556639 -3.828096),96.0,PREFEITO JOSÉ WALTER
1120,,"RUA 69 CJ JOSE WALTER, S/N",,-3.830487,-38.554696,,,0,,,,POINT (-38.554696 -3.830487),96.0,PREFEITO JOSÉ WALTER
1121,,"AVENIDA J CJ JOSE WALTER, 780",,-3.831916,-38.555933,,,0,,,,POINT (-38.555933 -3.831916),96.0,PREFEITO JOSÉ WALTER
1124,,"AVENIDA J CJ JOSE WALTER, 291",,-3.833825,-38.556505,,,0,,,,POINT (-38.556505 -3.833825),96.0,PREFEITO JOSÉ WALTER
1125,,"AVENIDA J CJ JOSE WALTER, SN",,-3.834694,-38.556779,,,0,,,,POINT (-38.556779 -3.834694),96.0,PREFEITO JOSÉ WALTER
1127,,"RUA PERGENTINO MAIA, 380",,-3.830969,-38.492044,,,0,,,,POINT (-38.492044 -3.830969),26.0,MESSEJANA
1128,,"RUA PERGENTINO MAIA, 613",,-3.831314,-38.489536,,,0,,,,POINT (-38.489536 -3.831314),26.0,MESSEJANA
1129,,"AVENIDA CEL DIONISIO ALENCAR, 350",,-3.831276,-38.487595,,,0,,,,POINT (-38.487595 -3.831276),26.0,MESSEJANA
1130,,"AVENIDA CEL DIONISIO ALENCAR, 144",,-3.829334,-38.486846,,,0,,,,POINT (-38.486846 -3.829334),26.0,MESSEJANA
1132,,"RUA DOR JOAQUIM BENTO, 820",,-3.8283,-38.484261,,,0,,,,POINT (-38.484261 -3.8283),26.0,MESSEJANA
1133,,"RUA DOR JOAQUIM BENTO, 510",,-3.828294,-38.484995,,,0,,,,POINT (-38.484995 -3.828294),26.0,MESSEJANA
1134,,"RUA MARIA JOSE WEYNE, 122",,-3.828972,-38.48494,,,0,,,,POINT (-38.48494 -3.828972),26.0,MESSEJANA
1135,,"RUA GUILHERME PESSOA, 1361",,-3.827725,-38.482999,,,0,,,,POINT (-38.482999 -3.827725),26.0,MESSEJANA
1136,,"AVENIDA WASHINGTON SOARES, 8776",,-3.828385,-38.482155,,,0,,,,POINT (-38.482155 -3.828385),89.0,GUAJERU
114,,"RUA DOR QUIXADA FELICIO, 241",,-3.710083,-38.595365,,,0,,,,POINT (-38.595365 -3.710083),86.0,VILA VELHA
1140,,"RUA MANUEL C BRANCO, 1195",,-3.833601,-38.4842,,,0,,,,POINT (-38.4842 -3.833601),26.0,MESSEJANA
1144,,"RUA MANUEL C BRANCO, 1011",,-3.833366,-38.485887,,,0,,,,POINT (-38.485887 -3.833366),26.0,MESSEJANA
1146,,"AVENIDA GURGEL DO AMARAL, 1240",,-3.836204,-38.48512,,,0,,,,POINT (-38.48512 -3.836204),26.0,MESSEJANA
1147,,"AVENIDA GURGEL DO AMARAL, 549",,-3.833394,-38.490746,,,0,,,,POINT (-38.490746 -3.833394),26.0,MESSEJANA
1150,,"AVENIDA TEN GURGEL DO AMARAL, 270",,-3.832955,-38.492441,,,0,,,,POINT (-38.492441 -3.832955),26.0,MESSEJANA
1151,,"RUA JOSE BELCHIOR, 535",,-3.829153,-38.480681,,,0,,,,POINT (-38.480681 -3.829153),89.0,GUAJERU
1152,,"RUA JOSE PEREIRA BARROS, 80",,-3.828334,-38.479341,,,0,,,,POINT (-38.479341 -3.828334),89.0,GUAJERU
1153,,"RUA CEL JUSTINO F RAMOS, 351",,-3.829215,-38.474971,,,0,,,,POINT (-38.474971 -3.829215),89.0,GUAJERU
1154,,"RUA CEL JUSTINO F RAMOS, 630",,-3.831481,-38.475387,,,0,,,,POINT (-38.475387 -3.831481),89.0,GUAJERU
1155,,"RUA CEL JUSTINO F RAMOS, 630",,-3.831622,-38.475416,,,0,,,,POINT (-38.475416 -3.831622),89.0,GUAJERU
1157,,"RUA E CJ RESD GUAJERU, 401",,-3.834629,-38.477911,,,0,,,,POINT (-38.477911 -3.834629),89.0,GUAJERU
1158,,"RUA SOCORRO GOMES, 413",,-3.834676,-38.477945,,,0,,,,POINT (-38.477945 -3.834676),89.0,GUAJERU
1159,,"RUA B CJ RESD GUAJERU, 23",,-3.83552,-38.477973,,,0,,,,POINT (-38.477973 -3.83552),89.0,GUAJERU
116,,"AVENIDA J CJ POLAR, 10",,-3.709968,-38.596508,,,0,,,,POINT (-38.596508 -3.709968),86.0,VILA VELHA
1160,,"RUA B CJ RESD GUAJERU, 434",,-3.835863,-38.478212,,,0,,,,POINT (-38.478212 -3.835863),89.0,GUAJERU
1161,,"RUA B CJ RESD GUAJERU, 295",,-3.834809,-38.477462,,,0,,,,POINT (-38.477462 -3.834809),89.0,GUAJERU
1162,,"RUA SOCORRO GOMES, 239",,-3.833506,-38.477097,,,0,,,,POINT (-38.477097 -3.833506),89.0,GUAJERU
1163,,"RUA D CJ RESD GUAJERU, 112",,-3.833415,-38.476457,,,0,,,,POINT (-38.476457 -3.833415),89.0,GUAJERU
1164,,"RUA B CJ RESD GUAJERU, 101",,-3.833297,-38.476372,,,0,,,,POINT (-38.476372 -3.833297),89.0,GUAJERU
1165,,"RUA JOAO ARAUJO LIMA, 1631",,-3.836641,-38.561387,,,0,,,,POINT (-38.561387 -3.836641),96.0,PREFEITO JOSÉ WALTER
1167,,"RUA JOAO ARAUJO LIMA, 1771",,-3.837375,-38.561634,,,0,,,,POINT (-38.561634 -3.837375),96.0,PREFEITO JOSÉ WALTER
1168,,"RUA JOAO ARAUJO LIMA, 1911",,-3.838819,-38.561843,,,0,,,,POINT (-38.561843 -3.838819),96.0,PREFEITO JOSÉ WALTER
1169,,"AVENIDA L CJ JOSE WALTER, 1300",,-3.836309,-38.559093,,,0,,,,POINT (-38.559093 -3.836309),96.0,PREFEITO JOSÉ WALTER
117,,"AVENIDA MOZART P.LUCENA, 1211",,-3.713349,-38.594275,,,0,,,,POINT (-38.594275 -3.713349),86.0,VILA VELHA
1170,,"AVENIDA L CJ JOSE WALTER, S/N",,-3.837536,-38.559458,,,0,,,,POINT (-38.559458 -3.837536),96.0,PREFEITO JOSÉ WALTER
1173,,"AVENIDA L CJ JOSE WALTER, 1560",,-3.839198,-38.55997,,,0,,,,POINT (-38.55997 -3.839198),96.0,PREFEITO JOSÉ WALTER
1175,,"AVENIDA J CJ JOSE WALTER, 1300",,-3.836358,-38.557294,,,0,,,,POINT (-38.557294 -3.836358),96.0,PREFEITO JOSÉ WALTER
1177,,"AVENIDA J CJ JOSE WALTER, 670",,-3.839749,-38.558304,,,0,,,,POINT (-38.558304 -3.839749),96.0,PREFEITO JOSÉ WALTER
1179,,"AVENIDA H CJ JOSE WALTER, 480",,-3.84092,-38.559788,,,0,,,,POINT (-38.559788 -3.84092),96.0,PREFEITO JOSÉ WALTER
1180,,"AVENIDA DOS MARINHEIROS, 654",,-3.843241,-38.563777,,,0,,,,POINT (-38.563777 -3.843241),96.0,PREFEITO JOSÉ WALTER
1181,,"AVENIDA DOS MARINHEIROS, 654",,-3.843162,-38.563857,,,0,,,,POINT (-38.563857 -3.843162),96.0,PREFEITO JOSÉ WALTER
1182,,"RUA JOAO ARAUJO LIMA, 2196",,-3.841217,-38.562454,,,0,,,,POINT (-38.562454 -3.841217),96.0,PREFEITO JOSÉ WALTER
1183,,"AVENIDA DOS MARINHEIROS, 750",,-3.84349,-38.565375,,,0,,,,POINT (-38.565375 -3.84349),96.0,PREFEITO JOSÉ WALTER
1184,,"AVENIDA I CJ JOSE WALTER, 1480",,-3.836948,-38.554316,,,0,,,,POINT (-38.554316 -3.836948),96.0,PREFEITO JOSÉ WALTER
1185,,"AVENIDA 95 CJ JOSE WALTER, 60",,-3.83891,-38.555452,,,0,,,,POINT (-38.555452 -3.83891),96.0,PREFEITO JOSÉ WALTER
1186,,"AVENIDA G CJ JOSE WALTER, 290",,-3.838353,-38.55722,,,0,,,,POINT (-38.55722 -3.838353),96.0,PREFEITO JOSÉ WALTER
1191,,"RUA STA EFIGENIA, 115",,-3.834967,-38.500596,,,0,,,,POINT (-38.500596 -3.834967),26.0,MESSEJANA
1193,,"RUA ANGELICA GURGEL, SN",,-3.835369,-38.499074,,,0,,,,POINT (-38.499074 -3.835369),26.0,MESSEJANA
1196,,"RUA GUARUJA, 404",,-3.834812,-38.497901,,,0,,,,POINT (-38.497901 -3.834812),26.0,MESSEJANA
1197,,"RUA GUARUJA, 336",,-3.834846,-38.496317,,,0,,,,POINT (-38.496317 -3.834846),26.0,MESSEJANA
1199,,"AVENIDA TEN JURANDIR DE ALENCAR, SN",,-3.832307,-38.49751,,,0,,,,POINT (-38.49751 -3.832307),26.0,MESSEJANA
12,,"AVENIDA CEL CARVALHO, 163",,-3.703877,-38.591409,,,0,,,,POINT (-38.591409 -3.703877),59.0,BARRA DO CEARÁ
120,,"AVENIDA DOM ALOISIO LORSCHEIDER, 1183",,-3.715936,-38.597278,,,0,,,,POINT (-38.597278 -3.715936),86.0,VILA VELHA
1201,,"AVENIDA FREI CIRILO, 126",,-3.828818,-38.493621,,,0,,,,POINT (-38.493621 -3.828818),26.0,MESSEJANA
1202,,"AVENIDA FREI CIRILO, 81",,-3.828086,-38.493434,,,0,,,,POINT (-38.493434 -3.828086),26.0,MESSEJANA
1203,,"RUA MANUEL C BRANCO, 54",,-3.831666,-38.495075,,,0,,,,POINT (-38.495075 -3.831666),26.0,MESSEJANA
1204,,"RUA EDUARDO PORTO, 57",,-3.83272,-38.494626,,,0,,,,POINT (-38.494626 -3.83272),26.0,MESSEJANA
1206,,"RUA MANUEL C BRANCO, 316",,-3.831807,-38.4927,,,0,,,,POINT (-38.4927 -3.831807),26.0,MESSEJANA
1207,,"RUA GUARUJA, 626",,-3.83487,-38.494954,,,0,,,,POINT (-38.494954 -3.83487),26.0,MESSEJANA
1209,,"RUA PDE PEDRO DE ALENCAR, 888",,-3.835451,-38.494138,,,0,,,,POINT (-38.494138 -3.835451),26.0,MESSEJANA
1210,,"RUA PDE PEDRO DE ALENCAR, 888",,-3.835772,-38.494147,,,0,,,,POINT (-38.494147 -3.835772),26.0,MESSEJANA
1211,,"AVENIDA MON TABOSA, 84",,-3.72303,-38.522229,,,0,,,,POINT (-38.522229 -3.72303),24.0,CENTRO
1212,,"RUA PESSOA ANTA, 96",,-3.721115,-38.522037,,,0,,,,POINT (-38.522037 -3.721115),24.0,CENTRO
1213,,"RUA PESSOA ANTA, 57",,-3.721126,-38.522126,,,0,,,,POINT (-38.522126 -3.721126),24.0,CENTRO
1214,,"AVENIDA ALBERTO NEPOMUCENO, SN",,-3.723415,-38.524429,,,0,,,,POINT (-38.524429 -3.723415),24.0,CENTRO
1215,,"AVENIDA ALBERTO NEPOMUCENO, SN",,-3.722916,-38.524008,,,0,,,,POINT (-38.524008 -3.722916),24.0,CENTRO
1216,,"AVENIDA ALM BARROSO, 511",,-3.720675,-38.518805,,,0,,,,POINT (-38.518805 -3.720675),11.0,PRAIA DE IRACEMA
1217,,"RUA ALM BARROSO, 411",,-3.720799,-38.519724,,,0,,,,POINT (-38.519724 -3.720799),11.0,PRAIA DE IRACEMA
1218,,"RUA ALM JACEGUAI, SN",,-3.721442,-38.519336,,,0,,,,POINT (-38.519336 -3.721442),24.0,CENTRO
1219,,"AVENIDA ALM BARROSO, 714",,-3.720403,-38.516762,,,0,,,,POINT (-38.516762 -3.720403),11.0,PRAIA DE IRACEMA
122,,"AVENIDA AMBIENTALISTA ARY THIERS, 235",,-3.71618,-38.597431,,,0,,,,POINT (-38.597431 -3.71618),86.0,VILA VELHA
1220,,"AVENIDA ALM BARROSO, 668",,-3.720605,-38.518279,,,0,,,,POINT (-38.518279 -3.720605),11.0,PRAIA DE IRACEMA
1221,,"RUA RUFINO DE ALENCAR, 346",,-3.724039,-38.520141,,,0,,,,POINT (-38.520141 -3.724039),24.0,CENTRO
1222,,"AVENIDA DOM MANUEL, 3",,-3.724059,-38.519657,,,0,,,,POINT (-38.519657 -3.724059),24.0,CENTRO
1223,,"AVENIDA DOM MANUEL, 140",,-3.725355,-38.520185,,,0,,,,POINT (-38.520185 -3.725355),24.0,CENTRO
1224,,"AVENIDA DOM MANUEL, 283",,-3.726753,-38.520539,,,0,,,,POINT (-38.520539 -3.726753),24.0,CENTRO
1225,,"RUA PEREIRA FILGUEIRAS, 442",,-3.726491,-38.518643,,,0,,,,POINT (-38.518643 -3.726491),24.0,CENTRO
1226,,"RUA TEN BENEVOLO, 284",,-3.72494,-38.518592,,,0,,,,POINT (-38.518592 -3.72494),24.0,CENTRO
1227,,"RUA PEREIRA FILGUEIRAS, 713",,-3.727148,-38.516619,,,0,,,,POINT (-38.516619 -3.727148),24.0,CENTRO
1228,,"RUA TEN BENEVOLO, 595",,-3.725778,-38.515848,,,0,,,,POINT (-38.515848 -3.725778),24.0,CENTRO
1229,,"RUA TEN BENEVOLO, 765",,-3.726253,-38.514299,,,0,,,,POINT (-38.514299 -3.726253),24.0,CENTRO
123,,"AVENIDA AMBIENTALISRA  ARY THIERS, 241",,-3.716272,-38.597994,,,0,,,,POINT (-38.597994 -3.716272),86.0,VILA VELHA
1230,,"RUA RUFINO DE ALENCAR, 100",,-3.724302,-38.522965,,,0,,,,POINT (-38.522965 -3.724302),24.0,CENTRO
1231,,"AVENIDA HIS RAIMUNDO GIRAO, 412",,-3.720717,-38.512219,,,0,,,,POINT (-38.512219 -3.720717),11.0,PRAIA DE IRACEMA
1232,,"AVENIDA HIS RAIMUNDO GIRAO, 363",,-3.720523,-38.513173,,,0,,,,POINT (-38.513173 -3.720523),11.0,PRAIA DE IRACEMA
1236,,"RUA TEN BENEVOLO, 1022",,-3.727061,-38.512014,,,0,,,,POINT (-38.512014 -3.727061),10.0,MEIRELES
124,,"AVENIDA D CJ PLANALTO BARRA, 1273",,-3.715787,-38.598861,,,0,,,,POINT (-38.598861 -3.715787),86.0,VILA VELHA
1240,,"AVENIDA BAR STUDART, 300",,-3.726733,-38.504122,,,0,,,,POINT (-38.504122 -3.726733),10.0,MEIRELES
1244,,"AVENIDA MON TABOSA, 176",,-3.724429,-38.505883,,,0,,,,POINT (-38.505883 -3.724429),10.0,MEIRELES
1245,,"AVENIDA ABOLICAO, SN",,-3.725558,-38.500762,,,0,,,,POINT (-38.500762 -3.725558),10.0,MEIRELES
1246,,"AVENIDA ABOLICAO, 2026",,-3.725654,-38.500881,,,0,,,,POINT (-38.500881 -3.725654),10.0,MEIRELES
1248,,"AVENIDA ABOLICAO, 2456",,-3.726891,-38.497018,,,0,,,,POINT (-38.497018 -3.726891),10.0,MEIRELES
1249,,"AVENIDA ABOLICAO, 2456",,-3.726804,-38.496879,,,0,,,,POINT (-38.496879 -3.726804),10.0,MEIRELES
125,,"AVENIDA ERS, 607",,-3.715399,-38.599995,,,0,,,,POINT (-38.599995 -3.715399),86.0,VILA VELHA
1250,,"AVENIDA ABOLICAO, SN",,-3.726116,-38.499006,,,0,,,,POINT (-38.499006 -3.726116),10.0,MEIRELES
1251,,"AVENIDA ABOLICAO, 3000",,-3.72696,-38.4928,,,0,,,,POINT (-38.4928 -3.72696),10.0,MEIRELES
1253,,"AVENIDA ABOLICAO, 2727",,-3.727269,-38.494787,,,0,,,,POINT (-38.494787 -3.727269),10.0,MEIRELES
1254,,"AVENIDA ABOLICAO, 2727",,-3.727185,-38.494929,,,0,,,,POINT (-38.494929 -3.727185),10.0,MEIRELES
1256,,"AVENIDA ABOLICAO, 3273",,-3.726532,-38.489988,,,0,,,,POINT (-38.489988 -3.726532),10.0,MEIRELES
1257,,"AVENIDA JULIO IBIAPINA, 222",,-3.727361,-38.491243,,,0,,,,POINT (-38.491243 -3.727361),10.0,MEIRELES
1258,,"AVENIDA ABOLICAO, 3207",,-3.72656,-38.49098,,,0,,,,POINT (-38.49098 -3.72656),10.0,MEIRELES
126,,"AVENIDA J CJ POLAR, 1416",,-3.717613,-38.598662,,,0,,,,POINT (-38.598662 -3.717613),86.0,VILA VELHA
1260,,"AVENIDA ABOLICAO, 3555",,-3.726058,-38.487029,,,0,,,,POINT (-38.487029 -3.726058),13.0,MUCURIPE
1261,,"AVENIDA ABOLICAO, 3555",,-3.725935,-38.487058,,,0,,,,POINT (-38.487058 -3.725935),13.0,MUCURIPE
1263,,"AVENIDA ABOLICAO, 3796",,-3.725627,-38.4857,,,0,,,,POINT (-38.4857 -3.725627),13.0,MUCURIPE
1264,,"AVENIDA ABOLICAO, 4140",,-3.724606,-38.482759,,,0,,,,POINT (-38.482759 -3.724606),13.0,MUCURIPE
1265,,"AVENIDA ABOLICAO, SN",,-3.725369,-38.484131,,,0,,,,POINT (-38.484131 -3.725369),13.0,MUCURIPE
1266,,"AVENIDA ABOLICAO, SN",,-3.72525,-38.484145,,,0,,,,POINT (-38.484145 -3.72525),13.0,MUCURIPE
1269,,"RUA PRO ALVARO COSTA, 195",,-3.723007,-38.464454,,,0,,,,POINT (-38.464454 -3.723007),106.0,VICENTE PINZON
127,,"AVENIDA MOZART P.LUCENA, 1720",,-3.717707,-38.595537,,,0,,,,POINT (-38.595537 -3.717707),86.0,VILA VELHA
1270,,"AVENIDA CESAR CALS, 350",,-3.720988,-38.464413,,,0,,,,POINT (-38.464413 -3.720988),106.0,VICENTE PINZON
1271,,"AVENIDA CESAR CALS, 350",,-3.72119,-38.464319,,,0,,,,POINT (-38.464319 -3.72119),106.0,VICENTE PINZON
1272,,"AVENIDA CESAR CALS, 130",,-3.7193,-38.465189,,,0,,,,POINT (-38.465189 -3.7193),92.0,CAIS DO PORTO
1273,,"AVENIDA ZEZE DIOGO, 1427",,-3.719292,-38.463639,,,0,,,,POINT (-38.463639 -3.719292),92.0,CAIS DO PORTO
1275,,"RUA BRISA DO MAR, 1121",,-3.726934,-38.468843,,,0,,,,POINT (-38.468843 -3.726934),106.0,VICENTE PINZON
1276,,"RUA AIRTON SENNA, 936",,-3.726948,-38.469809,,,0,,,,POINT (-38.469809 -3.726948),106.0,VICENTE PINZON
1278,,"AVENIDA , 440",,-3.724829,-38.465685,,,0,,,,POINT (-38.465685 -3.724829),106.0,VICENTE PINZON
1279,,"RUA OLIVEIRA FILHO, 890",,-3.726229,-38.464279,,,0,,,,POINT (-38.464279 -3.726229),106.0,VICENTE PINZON
128,,"AVENIDA MOZART P.LUCENA, 1680",,-3.717146,-38.595375,,,0,,,,POINT (-38.595375 -3.717146),86.0,VILA VELHA
1283,,"RUA CESAR CALS, 975",,-3.726894,-38.461362,,,0,,,,POINT (-38.461362 -3.726894),106.0,VICENTE PINZON
1284,,"AVENIDA CESAR CALS, 1030",,-3.726806,-38.46141,,,0,,,,POINT (-38.46141 -3.726806),106.0,VICENTE PINZON
1285,,"AVENIDA CESAR CALS, 876",,-3.725206,-38.462289,,,0,,,,POINT (-38.462289 -3.725206),106.0,VICENTE PINZON
1286,,"AVENIDA CESAR CALS, 876",,-3.725136,-38.462328,,,0,,,,POINT (-38.462328 -3.725136),106.0,VICENTE PINZON
1287,,"AVENIDA CESAR CALS, 510",,-3.723312,-38.463288,,,0,,,,POINT (-38.463288 -3.723312),106.0,VICENTE PINZON
1288,,"AVENIDA CESAR CALS, 560",,-3.723267,-38.463311,,,0,,,,POINT (-38.463311 -3.723267),106.0,VICENTE PINZON
1289,,"RUA MIGUEL CALMON, 09",,-3.727312,-38.463143,,,0,,,,POINT (-38.463143 -3.727312),106.0,VICENTE PINZON
129,,"RUA CIDADE PALHANO, 730",,-3.717388,-38.595112,,,0,,,,POINT (-38.595112 -3.717388),86.0,VILA VELHA
1292,,"AVENIDA J CJ CEARA, 623",,-3.762772,-38.614082,,,0,,,,POINT (-38.614082 -3.762772),50.0,CONJUNTO CEARÁ I
1296,,"AVENIDA C CJ CEARA, 73",,-3.758979,-38.608058,,,0,,,,POINT (-38.608058 -3.758979),50.0,CONJUNTO CEARÁ I
1297,,"AVENIDA C CJ CEARA, 73",,-3.758907,-38.608023,,,0,,,,POINT (-38.608023 -3.758907),50.0,CONJUNTO CEARÁ I
13,,"AVENIDA CEL CARVALHO, 250",,-3.704985,-38.591232,,,0,,,,POINT (-38.591232 -3.704985),86.0,VILA VELHA
130,,"RUA CIDADE PALHANO, 601",,-3.717651,-38.594217,,,0,,,,POINT (-38.594217 -3.717651),86.0,VILA VELHA
1301,,"RUA TAILANDIA, 531",,-3.755365,-38.604746,,,0,,,,POINT (-38.604746 -3.755365),79.0,GENIBAÚ
1302,,"AVENIDA E CJ CEARA, 340",,-3.759027,-38.606687,,,0,,,,POINT (-38.606687 -3.759027),50.0,CONJUNTO CEARÁ I
1303,,"AVENIDA E CJ CEARA, 280",,-3.759114,-38.606471,,,0,,,,POINT (-38.606471 -3.759114),50.0,CONJUNTO CEARÁ I
1304,,"RUA PERILIO TEIXEIRA, 1056",,-3.756208,-38.601244,,,0,,,,POINT (-38.601244 -3.756208),79.0,GENIBAÚ
1306,,"RUA JOSE MENDONCA, 896",,-3.755412,-38.60187,,,0,,,,POINT (-38.60187 -3.755412),79.0,GENIBAÚ
1307,,"RUA JOSE MENDONCA, 531",,-3.757768,-38.602304,,,0,,,,POINT (-38.602304 -3.757768),79.0,GENIBAÚ
1309,,"RUA PERILIO TEIXEIRA, 800",,-3.757706,-38.60154,,,0,,,,POINT (-38.60154 -3.757706),79.0,GENIBAÚ
131,,"AVENIDA MOZART P.LUCENA, 1560",,-3.716537,-38.595202,,,0,,,,POINT (-38.595202 -3.716537),86.0,VILA VELHA
1312,,"AVENIDA C CJ CEARA, 475",,-3.762913,-38.609643,,,0,,,,POINT (-38.609643 -3.762913),50.0,CONJUNTO CEARÁ I
1313,,"AVENIDA C CJ CEARA, 686",,-3.763027,-38.609688,,,0,,,,POINT (-38.609688 -3.763027),50.0,CONJUNTO CEARÁ I
1314,,"AVENIDA C CJ CEARA, 337",,-3.761626,-38.609136,,,0,,,,POINT (-38.609136 -3.761626),50.0,CONJUNTO CEARÁ I
1315,,"AVENIDA C CJ CEARA, 337A",,-3.76155,-38.609107,,,0,,,,POINT (-38.609107 -3.76155),50.0,CONJUNTO CEARÁ I
1318,,"AVENIDA E CJ CEARA, 167",,-3.759524,-38.605414,,,0,,,,POINT (-38.605414 -3.759524),79.0,GENIBAÚ
1319,,"AVENIDA E/CJ CEARÁ, 172",,-3.759556,-38.605331,,,0,,,,POINT (-38.605331 -3.759556),79.0,GENIBAÚ
132,,"AVENIDA AMBIENTALISTAARY THIERS, 131",,-3.716445,-38.596358,,,0,,,,POINT (-38.596358 -3.716445),86.0,VILA VELHA
1320,,"RUA 30 DE MAIO    (D73), 552",,-3.763013,-38.600652,,,0,,,,POINT (-38.600652 -3.763013),79.0,GENIBAÚ
1322,,"AVENIDA D CJ CEARA, 958",,-3.760386,-38.603574,,,0,,,,POINT (-38.603574 -3.760386),50.0,CONJUNTO CEARÁ I
1323,,"AVENIDA D CJ CEARA, 965",,-3.760296,-38.603607,,,0,,,,POINT (-38.603607 -3.760296),50.0,CONJUNTO CEARÁ I
1324,,"RUA JOSE MENDONCA, 188",,-3.760879,-38.60289,,,0,,,,POINT (-38.60289 -3.760879),79.0,GENIBAÚ
1326,,"AVENIDA J CJ CEARA, 917",,-3.766081,-38.615486,,,0,,,,POINT (-38.615486 -3.766081),47.0,CONJUNTO CEARÁ II
1328,,"AVENIDA J CJ CEARA, 1035",,-3.767204,-38.61599,,,0,,,,POINT (-38.61599 -3.767204),47.0,CONJUNTO CEARÁ II
1329,,"AVENIDA MIN ALBUQUERQUE LIMA, 180",,-3.764951,-38.612935,,,0,,,,POINT (-38.612935 -3.764951),50.0,CONJUNTO CEARÁ I
133,,"AVENIDA MOZART P.LUCENA, 1357",,-3.714771,-38.594688,,,0,,,,POINT (-38.594688 -3.714771),86.0,VILA VELHA
1330,,"AVENIDA MIN ALBUQUERQUE LIMA, 184",,-3.764364,-38.613567,,,0,,,,POINT (-38.613567 -3.764364),50.0,CONJUNTO CEARÁ I
1332,,"AVENIDA J CJ CEARA, 653",,-3.764256,-38.614741,,,0,,,,POINT (-38.614741 -3.764256),47.0,CONJUNTO CEARÁ II
1333,,"AVENIDA J CJ CEARA, 2892",,-3.772361,-38.619003,,,0,,,,POINT (-38.619003 -3.772361),47.0,CONJUNTO CEARÁ II
1334,,"AVENIDA J CJ CEARA, 2892",,-3.772026,-38.618829,,,0,,,,POINT (-38.618829 -3.772026),47.0,CONJUNTO CEARÁ II
1335,,"AVENIDA J CJ CEARA, 2250",,-3.769359,-38.617182,,,0,,,,POINT (-38.617182 -3.769359),47.0,CONJUNTO CEARÁ II
1336,,"AVENIDA J CJ CEARA, 2240",,-3.769481,-38.61727,,,0,,,,POINT (-38.61727 -3.769481),47.0,CONJUNTO CEARÁ II
1337,,"AVENIDA C CJ CEARA, 1625",,-3.77225,-38.615105,,,0,,,,POINT (-38.615105 -3.77225),47.0,CONJUNTO CEARÁ II
1339,,"AVENIDA J CJ CEARA, 2052",,-3.770863,-38.618228,,,0,,,,POINT (-38.618228 -3.770863),47.0,CONJUNTO CEARÁ II
1340,,"AVENIDA J CJ CEARA, 2580",,-3.770835,-38.618212,,,0,,,,POINT (-38.618212 -3.770835),47.0,CONJUNTO CEARÁ II
1341,,"AVENIDA C CJ CEARA, 816",,-3.77156,-38.614471,,,0,,,,POINT (-38.614471 -3.77156),47.0,CONJUNTO CEARÁ II
1344,,"AVENIDA C CJ CEARA, 1235",,-3.769231,-38.613511,,,0,,,,POINT (-38.613511 -3.769231),47.0,CONJUNTO CEARÁ II
1345,,"AVENIDA C CJ CEARA, 1215",,-3.769214,-38.613496,,,0,,,,POINT (-38.613496 -3.769214),47.0,CONJUNTO CEARÁ II
1348,,"AVENIDA C CJ CEARA, 635",,-3.764566,-38.6103,,,0,,,,POINT (-38.6103 -3.764566),50.0,CONJUNTO CEARÁ I
1349,,"AVENIDA C CJ CEARA, 478",,-3.764416,-38.610239,,,0,,,,POINT (-38.610239 -3.764416),50.0,CONJUNTO CEARÁ I
135,,"RUA DOR AMADEU SA, 353",,-3.718174,-38.592456,,,0,,,,POINT (-38.592456 -3.718174),86.0,VILA VELHA
1350,,"AVENIDA C CJ CEARA, SN",,-3.766208,-38.610955,,,0,,,,POINT (-38.610955 -3.766208),50.0,CONJUNTO CEARÁ I
1351,,"AVENIDA C CJ CEARA, 805",,-3.7661,-38.610912,,,0,,,,POINT (-38.610912 -3.7661),50.0,CONJUNTO CEARÁ I
1352,,"AVENIDA MIN ALBUQUERQUE LIMA, 178",,-3.767274,-38.609766,,,0,,,,POINT (-38.609766 -3.767274),50.0,CONJUNTO CEARÁ I
1353,,"AVENIDA MIN ALBUQUERQUE LIMA, 170",,-3.767753,-38.608945,,,0,,,,POINT (-38.608945 -3.767753),50.0,CONJUNTO CEARÁ I
1354,,"AVENIDA MIN ALBUQUERQUE LIMA, 285",,-3.767976,-38.608579,,,0,,,,POINT (-38.608579 -3.767976),50.0,CONJUNTO CEARÁ I
1355,,"AVENIDA ALANIS MARIA LAURINDO OLIVEIRA, 760",,-3.768334,-38.607247,,,0,,,,POINT (-38.607247 -3.768334),50.0,CONJUNTO CEARÁ I
1356,,"AVENIDA B CJ CEARA, 550",,-3.766652,-38.606178,,,0,,,,POINT (-38.606178 -3.766652),50.0,CONJUNTO CEARÁ I
1357,,"AVENIDA ALANIS MARIA LAURINDO DE OLIVEIRA, 510",,-3.766256,-38.605929,,,0,,,,POINT (-38.605929 -3.766256),50.0,CONJUNTO CEARÁ I
1358,,"AVENIDA B CJ CEARA, 370",,-3.764878,-38.605055,,,0,,,,POINT (-38.605055 -3.764878),50.0,CONJUNTO CEARÁ I
136,,"RUA DOR AMADEU SA, 349",,-3.718418,-38.591646,,,0,,,,POINT (-38.591646 -3.718418),86.0,VILA VELHA
1360,,"AVENIDA A CJ CEARA, 613",,-3.767085,-38.601514,,,0,,,,POINT (-38.601514 -3.767085),50.0,CONJUNTO CEARÁ I
1361,,"AVENIDA A CJ CEARA, 668",,-3.767474,-38.602354,,,0,,,,POINT (-38.602354 -3.767474),50.0,CONJUNTO CEARÁ I
1362,,"AVENIDA D CJ CEARA, 1429",,-3.76446,-38.602018,,,0,,,,POINT (-38.602018 -3.76446),50.0,CONJUNTO CEARÁ I
1363,,"AVENIDA L CJ CEARA, SN",,-3.770619,-38.606688,,,0,,,,POINT (-38.606688 -3.770619),47.0,CONJUNTO CEARÁ II
1364,,"AVENIDA MIN ALBUQUERQUE LIMA, 788",,-3.770136,-38.605991,,,0,,,,POINT (-38.605991 -3.770136),50.0,CONJUNTO CEARÁ I
1365,,"AVENIDA 151 CJ CEARA, 151",,-3.769659,-38.606579,,,0,,,,POINT (-38.606579 -3.769659),50.0,CONJUNTO CEARÁ I
1366,,"AVENIDA MIN ALBUQUERQUE LIMA, 804",,-3.770196,-38.605887,,,0,,,,POINT (-38.605887 -3.770196),50.0,CONJUNTO CEARÁ I
1367,,"AVENIDA A CJ CEARA, 1160",,-3.772101,-38.605088,,,0,,,,POINT (-38.605088 -3.772101),47.0,CONJUNTO CEARÁ II
1368,,"AVENIDA 727 CJ CEARA, 1230",,-3.771542,-38.604936,,,0,,,,POINT (-38.604936 -3.771542),47.0,CONJUNTO CEARÁ II
1369,,"AVENIDA A CJ CEARA, 1028",,-3.770201,-38.604566,,,0,,,,POINT (-38.604566 -3.770201),50.0,CONJUNTO CEARÁ I
1370,,"AVENIDA A CJ CEARA, 1039",,-3.769309,-38.604314,,,0,,,,POINT (-38.604314 -3.769309),50.0,CONJUNTO CEARÁ I
1371,,"AVENIDA A CJ CEARA, 884",,-3.768121,-38.603587,,,0,,,,POINT (-38.603587 -3.768121),50.0,CONJUNTO CEARÁ I
1372,,"AVENIDA ALANIS MARIA LAURINDO OLIVEIRA, 760",,-3.768512,-38.607359,,,0,,,,POINT (-38.607359 -3.768512),50.0,CONJUNTO CEARÁ I
1373,,"AVENIDA MIN ALBUQUERQUE LIMA, 1058",,-3.770887,-38.603607,,,0,,,,POINT (-38.603607 -3.770887),50.0,CONJUNTO CEARÁ I
1374,,"AVENIDA MIN ALBUQUERQUE LIMA, 1113",,-3.770992,-38.60272,,,0,,,,POINT (-38.60272 -3.770992),50.0,CONJUNTO CEARÁ I
1375,,"AVENIDA MIN ALBUQUERQUE LIMA, 1412",,-3.770979,-38.602349,,,0,,,,POINT (-38.602349 -3.770979),50.0,CONJUNTO CEARÁ I
1376,,"AVENIDA MIN ALBUQUERQUE LIMA, 1225",,-3.770867,-38.601647,,,0,,,,POINT (-38.601647 -3.770867),50.0,CONJUNTO CEARÁ I
1379,,"AVENIDA I CJ CEARA, 335",,-3.766568,-38.596999,,,0,,,,POINT (-38.596999 -3.766568),50.0,CONJUNTO CEARÁ I
138,,"AVENIDA CEL CARVALHO, 1038",,-3.711183,-38.589574,,,0,,,,POINT (-38.589574 -3.711183),86.0,VILA VELHA
1380,,"AVENIDA I CJ CEARA, 337",,-3.7665,-38.597036,,,0,,,,POINT (-38.597036 -3.7665),50.0,CONJUNTO CEARÁ I
1381,,"AVENIDA I CJ CEARA, 211",,-3.765902,-38.59865,,,0,,,,POINT (-38.59865 -3.765902),50.0,CONJUNTO CEARÁ I
1382,,"AVENIDA I CJ CEARA, 237",,-3.76588,-38.59856,,,0,,,,POINT (-38.59856 -3.76588),50.0,CONJUNTO CEARÁ I
1383,,"AVENIDA I CJ CEARA, 220",,-3.766667,-38.600587,,,0,,,,POINT (-38.600587 -3.766667),50.0,CONJUNTO CEARÁ I
1384,,"AVENIDA AUDISIO PINHEIRO, 1883",,-3.766873,-38.593116,,,0,,,,POINT (-38.593116 -3.766873),110.0,JOÃO XXIII
1385,,"AVENIDA I CJ CEARA, 1126",,-3.772362,-38.597947,,,0,,,,POINT (-38.597947 -3.772362),47.0,CONJUNTO CEARÁ II
1386,,"AVENIDA I CJ CEARA, 915",,-3.77244,-38.597962,,,0,,,,POINT (-38.597962 -3.77244),47.0,CONJUNTO CEARÁ II
1387,,"AVENIDA I CJ CEARA, 702",,-3.770401,-38.597571,,,0,,,,POINT (-38.597571 -3.770401),47.0,CONJUNTO CEARÁ II
1388,,"AVENIDA I CJ CEARA, 705",,-3.77056,-38.597599,,,0,,,,POINT (-38.597599 -3.77056),47.0,CONJUNTO CEARÁ II
1389,,"AVENIDA MIN ALBUQUERQUE LIMA, 1730",,-3.770188,-38.598419,,,0,,,,POINT (-38.598419 -3.770188),50.0,CONJUNTO CEARÁ I
139,,"AVENIDA CEL CARVALHO, 1033",,-3.711356,-38.589429,,,0,,,,POINT (-38.589429 -3.711356),59.0,BARRA DO CEARÁ
1391,,"AVENIDA MIN ALBUQUERQUE LIMA, 1431",,-3.770544,-38.600153,,,0,,,,POINT (-38.600153 -3.770544),50.0,CONJUNTO CEARÁ I
1392,,"AVENIDA MIN ALBUQUERQUE LIMA, 1412",,-3.770535,-38.600111,,,0,,,,POINT (-38.600111 -3.770535),50.0,CONJUNTO CEARÁ I
1393,,"AVENIDA L CJ CEARÁ, 135",,-3.774932,-38.607703,,,0,,,,POINT (-38.607703 -3.774932),47.0,CONJUNTO CEARÁ II
1395,,"AVENIDA G CJ CEARA, 615",,-3.774091,-38.610353,,,0,,,,POINT (-38.610353 -3.774091),47.0,CONJUNTO CEARÁ II
1396,,"AVENIDA H CJ CEARA, 1285",,-3.775687,-38.609249,,,0,,,,POINT (-38.609249 -3.775687),47.0,CONJUNTO CEARÁ II
1397,,"AVENIDA H CJ CEARA, 1280",,-3.775693,-38.609297,,,0,,,,POINT (-38.609297 -3.775693),47.0,CONJUNTO CEARÁ II
1398,,"AVENIDA H CJ CEARA, 901",,-3.775133,-38.605791,,,0,,,,POINT (-38.605791 -3.775133),47.0,CONJUNTO CEARÁ II
1399,,"AVENIDA H CJ CEARA, 901",,-3.775104,-38.605531,,,0,,,,POINT (-38.605531 -3.775104),47.0,CONJUNTO CEARÁ II
14,,"AVENIDA FRANCISCO SA, 7998",,-3.70349,-38.591227,,,0,,,,POINT (-38.591227 -3.70349),59.0,BARRA DO CEARÁ
1400,,"AVENIDA A CJ CEARA, 1455",,-3.774638,-38.605785,,,0,,,,POINT (-38.605785 -3.774638),47.0,CONJUNTO CEARÁ II
1401,,"AVENIDA 741 CJ CEARA, 201",,-3.774326,-38.605698,,,0,,,,POINT (-38.605698 -3.774326),47.0,CONJUNTO CEARÁ II
1402,,"AVENIDA I CJ CEARA, 901",,-3.77495,-38.604221,,,0,,,,POINT (-38.604221 -3.77495),47.0,CONJUNTO CEARÁ II
1403,,"RUA JOSE TORRES, 1576",,-3.776091,-38.606192,,,0,,,,POINT (-38.606192 -3.776091),91.0,GRANJA LISBOA
1404,,"AVENIDA I CJ CEARA, 2736",,-3.774944,-38.604164,,,0,,,,POINT (-38.604164 -3.774944),47.0,CONJUNTO CEARÁ II
1407,,"AVENIDA I CJ CEARA, 1573",,-3.773573,-38.600734,,,0,,,,POINT (-38.600734 -3.773573),47.0,CONJUNTO CEARÁ II
1408,,"RUA DUAS NACOES, 570",,-3.77728,-38.602141,,,0,,,,POINT (-38.602141 -3.77728),99.0,GRANJA PORTUGAL
1409,,"RUA TEODORO DE CASTRO, 1883",,-3.779101,-38.607365,,,0,,,,POINT (-38.607365 -3.779101),91.0,GRANJA LISBOA
141,,"RUA TULIPA, 375",,-3.713819,-38.579301,,,0,,,,POINT (-38.579301 -3.713819),59.0,BARRA DO CEARÁ
1410,,"RUA TEODORO DE CASTRO, 1840",,-3.779148,-38.607206,,,0,,,,POINT (-38.607206 -3.779148),91.0,GRANJA LISBOA
1411,,"RUA TEODORO DE CASTRO, 1612",,-3.779748,-38.605069,,,0,,,,POINT (-38.605069 -3.779748),99.0,GRANJA PORTUGAL
1412,,"RUA TEODORO DE CASTRO, 1609",,-3.779719,-38.60519,,,0,,,,POINT (-38.60519 -3.779719),99.0,GRANJA PORTUGAL
1413,,"RUA JOSE TORRES, 824",,-3.778179,-38.606772,,,0,,,,POINT (-38.606772 -3.778179),99.0,GRANJA PORTUGAL
1414,,"RUA JOSE TORRES, 1048",,-3.780145,-38.607319,,,0,,,,POINT (-38.607319 -3.780145),99.0,GRANJA PORTUGAL
1415,,"RUA EMILIO DE MENESES, 2276",,-3.777848,-38.601275,,,0,,,,POINT (-38.601275 -3.777848),99.0,GRANJA PORTUGAL
1419,,"RUA TEODORO DE CASTRO, 1415",,-3.780086,-38.603849,,,0,,,,POINT (-38.603849 -3.780086),99.0,GRANJA PORTUGAL
142,,"RUA TULIPA, 420",,-3.714091,-38.579404,,,0,,,,POINT (-38.579404 -3.714091),59.0,BARRA DO CEARÁ
1420,,"RUA TEODORO DE CASTRO, 1423",,-3.780069,-38.603911,,,0,,,,POINT (-38.603911 -3.780069),99.0,GRANJA PORTUGAL
1421,,"RUA ANTONIO NERY, 495",,-3.777069,-38.599907,,,0,,,,POINT (-38.599907 -3.777069),99.0,GRANJA PORTUGAL
1422,,"AVENIDA I CJ CEARA, 1359",,-3.773167,-38.599418,,,0,,,,POINT (-38.599418 -3.773167),47.0,CONJUNTO CEARÁ II
1423,,"AVENIDA I CJ CEARA, 1344",,-3.773162,-38.599447,,,0,,,,POINT (-38.599447 -3.773162),47.0,CONJUNTO CEARÁ II
1424,,"RUA VITAL BRASIL, 1948",,-3.77796,-38.598189,,,0,,,,POINT (-38.598189 -3.77796),99.0,GRANJA PORTUGAL
1425,,"RUA EMILIO DE MENESES, 1947",,-3.778579,-38.598675,,,0,,,,POINT (-38.598675 -3.778579),99.0,GRANJA PORTUGAL
1426,,"RUA VITAL BRASIL, 1430",,-3.779106,-38.594131,,,0,,,,POINT (-38.594131 -3.779106),66.0,BONSUCESSO
1428,,"RUA EMILIO DE MENESES, 1551",,-3.779391,-38.595764,,,0,,,,POINT (-38.595764 -3.779391),99.0,GRANJA PORTUGAL
1429,,"RUA EMILIO DE MENESES, 1372",,-3.780034,-38.593507,,,0,,,,POINT (-38.593507 -3.780034),66.0,BONSUCESSO
1430,,"RUA VITAL BRASIL, 1097",,-3.779916,-38.591249,,,0,,,,POINT (-38.591249 -3.779916),66.0,BONSUCESSO
1431,,"RUA EMILIO DE MENESES, 957",,-3.781026,-38.589993,,,0,,,,POINT (-38.589993 -3.781026),66.0,BONSUCESSO
1433,,"RUA BARRINHA, 2956",,-3.729325,-38.603444,,,0,,,,POINT (-38.603444 -3.729325),37.0,QUINTINO CUNHA
1434,,"RUA STA MARIA GORETE, 2950",,-3.729223,-38.603414,,,0,,,,POINT (-38.603414 -3.729223),37.0,QUINTINO CUNHA
1435,,"RUA DONA LÚCIA PINHEIRO, 2723",,-3.730506,-38.603286,,,0,,,,POINT (-38.603286 -3.730506),37.0,QUINTINO CUNHA
1436,,"RUA DONA LÚCIA PINHEIRO, 2726",,-3.73053,-38.603201,,,0,,,,POINT (-38.603201 -3.73053),37.0,QUINTINO CUNHA
1437,,"RUA DONA LÚCIA PINHEIRO, 2556",,-3.730972,-38.601616,,,0,,,,POINT (-38.601616 -3.730972),37.0,QUINTINO CUNHA
144,,"AVENIDA FRANCISCO SA, 6200",,-3.709885,-38.579284,,,0,,,,POINT (-38.579284 -3.709885),59.0,BARRA DO CEARÁ
1440,,"RUA DO TRABALHADOR, 2409 A",,-3.731589,-38.599445,,,0,,,,POINT (-38.599445 -3.731589),37.0,QUINTINO CUNHA
1441,,"RUA XXV CIDADE OESTE, 2262",,-3.731764,-38.598758,,,0,,,,POINT (-38.598758 -3.731764),37.0,QUINTINO CUNHA
1442,,"RUA DON LÚCIA PINHEIRO, 92",,-3.732002,-38.597893,,,0,,,,POINT (-38.597893 -3.732002),37.0,QUINTINO CUNHA
1443,,"RUA XIX CIDADE OESTE, 258",,-3.731258,-38.597792,,,0,,,,POINT (-38.597792 -3.731258),37.0,QUINTINO CUNHA
1444,,"RUA XXVII CIDADE OESTE, 344",,-3.7301,-38.597672,,,0,,,,POINT (-38.597672 -3.7301),37.0,QUINTINO CUNHA
1445,,"RUA XXVII CIDADE OESTE, 263",,-3.729765,-38.597578,,,0,,,,POINT (-38.597578 -3.729765),37.0,QUINTINO CUNHA
1446,,"RUA XXVII CIDADE OESTE, 160",,-3.729007,-38.597393,,,0,,,,POINT (-38.597393 -3.729007),37.0,QUINTINO CUNHA
1447,,"RUA XV CIDADE OESTE, 230",,-3.728034,-38.598265,,,0,,,,POINT (-38.598265 -3.728034),37.0,QUINTINO CUNHA
1449,,"RUA GAL ALIPIO DOS SANTOS, 1230",,-3.732244,-38.593749,,,0,,,,POINT (-38.593749 -3.732244),37.0,QUINTINO CUNHA
145,,"RUA JANDIRA, 1136",,-3.717234,-38.587063,,,0,,,,POINT (-38.587063 -3.717234),2.0,JARDIM IRACEMA
1450,,"RUA XX CIDADE OESTE, 301",,-3.731713,-38.595662,,,0,,,,POINT (-38.595662 -3.731713),37.0,QUINTINO CUNHA
1451,,"RUA XIX CIDADE OESTE, 30",,-3.731683,-38.596325,,,0,,,,POINT (-38.596325 -3.731683),37.0,QUINTINO CUNHA
1452,,"AVENIDA MOZART P.LUCENA, 3256",,-3.733116,-38.599845,,,0,,,,POINT (-38.599845 -3.733116),37.0,QUINTINO CUNHA
1453,,"RUA DOR PIO SARAIVA, 31",,-3.734313,-38.599986,,,0,,,,POINT (-38.599986 -3.734313),37.0,QUINTINO CUNHA
1454,,"RUA DOR PIO SARAIVA, 62",,-3.734398,-38.599978,,,0,,,,POINT (-38.599978 -3.734398),37.0,QUINTINO CUNHA
1455,,"RUA DOR PIO SARAIVA, 192",,-3.735972,-38.599767,,,0,,,,POINT (-38.599767 -3.735972),37.0,QUINTINO CUNHA
1456,,"RUA PDE PERDIGAO SAMPAIO, 05",,-3.732612,-38.596769,,,0,,,,POINT (-38.596769 -3.732612),37.0,QUINTINO CUNHA
1457,,"RUA PDE PERDIGAO SAMPAIO, 111",,-3.734498,-38.595901,,,0,,,,POINT (-38.595901 -3.734498),37.0,QUINTINO CUNHA
1458,,"RUA PDE PERDIGAO SAMPAIO, 447",,-3.735707,-38.595382,,,0,,,,POINT (-38.595382 -3.735707),37.0,QUINTINO CUNHA
1459,,"RUA XXIX CIDADE OESTE, 378",,-3.732398,-38.594762,,,0,,,,POINT (-38.594762 -3.732398),37.0,QUINTINO CUNHA
146,,"RUA JANDIRA, 1013",,-3.715745,-38.586918,,,0,,,,POINT (-38.586918 -3.715745),2.0,JARDIM IRACEMA
1460,,"RUA DEP MATOSO FILHO, 790",,-3.732943,-38.591573,,,0,,,,POINT (-38.591573 -3.732943),97.0,OLAVO OLIVEIRA
1461,,"RUA DEP MATOSO FILHO, 699",,-3.73257,-38.590734,,,0,,,,POINT (-38.590734 -3.73257),97.0,OLAVO OLIVEIRA
1462,,"RUA DEP MATOSO FILHO, 650",,-3.732429,-38.590409,,,0,,,,POINT (-38.590409 -3.732429),97.0,OLAVO OLIVEIRA
1463,,"RUA EMILIA GONCALVES, 1244",,-3.733231,-38.59265,,,0,,,,POINT (-38.59265 -3.733231),37.0,QUINTINO CUNHA
1464,,"RUA SGT HERMINIO, 185",,-3.734902,-38.591391,,,0,,,,POINT (-38.591391 -3.734902),70.0,ANTÔNIO BEZERRA
1465,,"RUA SAO DOMINGOS, 448",,-3.735368,-38.591748,,,0,,,,POINT (-38.591748 -3.735368),70.0,ANTÔNIO BEZERRA
1466,,"RUA SAO DOMINGOS, 437",,-3.735461,-38.591694,,,0,,,,POINT (-38.591694 -3.735461),70.0,ANTÔNIO BEZERRA
1467,,"RUA SAO DOMINGOS, 313",,-3.736398,-38.591129,,,0,,,,POINT (-38.591129 -3.736398),70.0,ANTÔNIO BEZERRA
1468,,"RUA SÃO DOMINGOS, 316",,-3.736634,-38.590985,,,0,,,,POINT (-38.590985 -3.736634),70.0,ANTÔNIO BEZERRA
1469,,"RUA SGT HERMINIO, 73",,-3.734486,-38.590614,,,0,,,,POINT (-38.590614 -3.734486),70.0,ANTÔNIO BEZERRA
147,,"AVENIDA CEL CARVALHO, 1309",,-3.714255,-38.588791,,,0,,,,POINT (-38.588791 -3.714255),86.0,VILA VELHA
1470,,"AVENIDA DA INDEPENDENCIA, 781",,-3.728056,-38.587031,,,0,,,,POINT (-38.587031 -3.728056),97.0,OLAVO OLIVEIRA
1472,,"RUA DEP MATOSO FILHO, 303",,-3.73123,-38.587689,,,0,,,,POINT (-38.587689 -3.73123),97.0,OLAVO OLIVEIRA
1473,,"AVENIDA CEL CARVALHO, 2882",,-3.728219,-38.58514,,,0,,,,POINT (-38.58514 -3.728219),28.0,JARDIM GUANABARA
1474,,"AVENIDA CEL CARVALHO, 2889",,-3.728366,-38.584979,,,0,,,,POINT (-38.584979 -3.728366),2.0,JARDIM IRACEMA
1475,,"RUA DEP MATOSO FILHO, 93",,-3.730501,-38.586092,,,0,,,,POINT (-38.586092 -3.730501),97.0,OLAVO OLIVEIRA
1476,,"RUA DEP MATOSO FILHO, 154",,-3.730516,-38.586125,,,0,,,,POINT (-38.586125 -3.730516),97.0,OLAVO OLIVEIRA
1477,,"AVENIDA CEL CARVALHO, 342",,-3.730876,-38.584714,,,0,,,,POINT (-38.584714 -3.730876),97.0,OLAVO OLIVEIRA
1478,,"AVENIDA CEL CARVALHO, 342",,-3.731094,-38.584583,,,0,,,,POINT (-38.584583 -3.731094),2.0,JARDIM IRACEMA
148,,"AVENIDA CEL CARVALHO, 1297",,-3.714249,-38.588691,,,0,,,,POINT (-38.588691 -3.714249),59.0,BARRA DO CEARÁ
1480,,"RUA PRC NASSAU, 251",,-3.728704,-38.582573,,,0,,,,POINT (-38.582573 -3.728704),2.0,JARDIM IRACEMA
1481,,"AVENIDA SGT HERMINIO, 4600",,-3.731808,-38.57998,,,0,,,,POINT (-38.57998 -3.731808),115.0,PADRE ANDRADE
1482,,"RUA BANVAR BEZERRA, 36",,-3.730152,-38.580641,,,0,,,,POINT (-38.580641 -3.730152),115.0,PADRE ANDRADE
1483,,"RUA BANVAR BEZERRA, 40",,-3.730681,-38.580579,,,0,,,,POINT (-38.580579 -3.730681),115.0,PADRE ANDRADE
1484,,"AVENIDA FRE CIRILO, SN",,-3.819491,-38.496408,,,0,,,,POINT (-38.496408 -3.819491),26.0,MESSEJANA
1485,,"AVENIDA FRE CIRILO, 3930",,-3.819694,-38.496421,,,0,,,,POINT (-38.496421 -3.819694),26.0,MESSEJANA
1486,,"AVENIDA FRE CIRILO, 4027",,-3.821543,-38.495501,,,0,,,,POINT (-38.495501 -3.821543),26.0,MESSEJANA
1488,,"AVENIDA FRE CIRILO, 4434",,-3.825178,-38.494014,,,0,,,,POINT (-38.494014 -3.825178),26.0,MESSEJANA
1489,,"AVENIDA FRE CIRILO, 4763",,-3.825202,-38.493898,,,0,,,,POINT (-38.493898 -3.825202),26.0,MESSEJANA
149,,"AVENIDA CEL CARVALHO, 1751",,-3.717818,-38.587799,,,0,,,,POINT (-38.587799 -3.717818),2.0,JARDIM IRACEMA
1490,,"AVENIDA SGT HERMINIO, 5498",,-3.733997,-38.588268,,,0,,,,POINT (-38.588268 -3.733997),70.0,ANTÔNIO BEZERRA
1492,,"RUA CAP BRASIL, 219",,-3.736066,-38.586362,,,0,,,,POINT (-38.586362 -3.736066),70.0,ANTÔNIO BEZERRA
1493,,"RUA CEL CARVALHO, 3572",,-3.734926,-38.584248,,,0,,,,POINT (-38.584248 -3.734926),70.0,ANTÔNIO BEZERRA
1494,,"RUA CEL CARVALHO, 3581",,-3.73488,-38.584143,,,0,,,,POINT (-38.584143 -3.73488),115.0,PADRE ANDRADE
1495,,"AVENIDA SGT HERMINIO, 4863",,-3.733344,-38.583468,,,0,,,,POINT (-38.583468 -3.733344),115.0,PADRE ANDRADE
1496,,"AVENIDA SGT HERMINIO, 4931",,-3.733476,-38.583672,,,0,,,,POINT (-38.583672 -3.733476),115.0,PADRE ANDRADE
1497,,"RUA BANVAR BEZERRA, 278",,-3.732384,-38.580374,,,0,,,,POINT (-38.580374 -3.732384),115.0,PADRE ANDRADE
1498,,"RUA BANVAR BEZERRA, 278",,-3.732468,-38.580367,,,0,,,,POINT (-38.580367 -3.732468),115.0,PADRE ANDRADE
1499,,"RUA GAL GOIS MONTEIRO, 525",,-3.733896,-38.579836,,,0,,,,POINT (-38.579836 -3.733896),115.0,PADRE ANDRADE
15,,"RUA 2 CJ POLAR, 50",,-3.70769,-38.593439,,,0,,,,POINT (-38.593439 -3.70769),86.0,VILA VELHA
150,,"AVENIDA CEL CARVALHO, 1678",,-3.717247,-38.588055,,,0,,,,POINT (-38.588055 -3.717247),86.0,VILA VELHA
1500,,"RUA GAL GOIS MONTEIRO, 525",,-3.733882,-38.579734,,,0,,,,POINT (-38.579734 -3.733882),115.0,PADRE ANDRADE
1501,,"AVENIDA SGT HERMINIO, 4020",,-3.730649,-38.577044,,,0,,,,POINT (-38.577044 -3.730649),115.0,PADRE ANDRADE
1502,,"AVENIDA SGT HERMINIO, 4289",,-3.731185,-38.578413,,,0,,,,POINT (-38.578413 -3.731185),115.0,PADRE ANDRADE
1503,,"AVENIDA SGT HERMINIO, 3787",,-3.729908,-38.575134,,,0,,,,POINT (-38.575134 -3.729908),38.0,PRESIDENTE KENNEDY
1505,,"AVENIDA SGT HERMÍNIO, 3673",,-3.729256,-38.573498,,,0,,,,POINT (-38.573498 -3.729256),38.0,PRESIDENTE KENNEDY
1506,,"AVENIDA SGT HERMINIO, 57",,-3.728579,-38.571819,,,0,,,,POINT (-38.571819 -3.728579),38.0,PRESIDENTE KENNEDY
1507,,"AVENIDA SGT HERMINIO, 11",,-3.728096,-38.57034,,,0,,,,POINT (-38.57034 -3.728096),38.0,PRESIDENTE KENNEDY
1509,,"AVENIDA GOV PARSIFAL BARROSO, 300",,-3.730471,-38.569101,,,0,,,,POINT (-38.569101 -3.730471),38.0,PRESIDENTE KENNEDY
151,,"RUA COS LAFAYETE, 564",,-3.717963,-38.582994,,,0,,,,POINT (-38.582994 -3.717963),2.0,JARDIM IRACEMA
1510,,"RUA GAL GOIS MONTEIRO, 285",,-3.73357,-38.577701,,,0,,,,POINT (-38.577701 -3.73357),115.0,PADRE ANDRADE
1511,,"RUA GAL GOIS MONTEIRO, 508",,-3.733564,-38.577657,,,0,,,,POINT (-38.577657 -3.733564),115.0,PADRE ANDRADE
1514,,"RUA MARIA MIRIAM FERREIRA DE SOUZA, SN",,-3.733459,-38.568905,,,0,,,,POINT (-38.568905 -3.733459),38.0,PRESIDENTE KENNEDY
1515,,"AVENIDA GOV PARSIFAL BARROSO, SN",,-3.73395,-38.569001,,,0,,,,POINT (-38.569001 -3.73395),38.0,PRESIDENTE KENNEDY
1516,,"RUA OLAVO BILAC, 1300",,-3.732107,-38.564586,,,0,,,,POINT (-38.564586 -3.732107),62.0,SÃO GERARDO
1517,,"RUA OLAVO BILAC, 1241",,-3.731779,-38.564612,,,0,,,,POINT (-38.564612 -3.731779),38.0,PRESIDENTE KENNEDY
1518,,"RUA OLAVO BILAC, 1076",,-3.730173,-38.564737,,,0,,,,POINT (-38.564737 -3.730173),38.0,PRESIDENTE KENNEDY
1519,,"RUA OLAVO BILAC, 809",,-3.727929,-38.564993,,,0,,,,POINT (-38.564993 -3.727929),62.0,SÃO GERARDO
152,,"RUA ALBERTO FERREIRA, 80",,-3.718242,-38.582861,,,0,,,,POINT (-38.582861 -3.718242),2.0,JARDIM IRACEMA
1522,,"RUA MOZART GONDIM, 1340",,-3.731136,-38.559882,,,0,,,,POINT (-38.559882 -3.731136),62.0,SÃO GERARDO
1526,,"RUA OLAVO BILAC, S/N",,-3.735015,-38.564285,,,0,,,,POINT (-38.564285 -3.735015),62.0,SÃO GERARDO
1527,,"RUA OLAVO BILAC, 1300",,-3.73483,-38.564327,,,0,,,,POINT (-38.564327 -3.73483),62.0,SÃO GERARDO
153,,"RUA COS LAFAYETE, 410",,-3.717938,-38.583246,,,0,,,,POINT (-38.583246 -3.717938),2.0,JARDIM IRACEMA
154,,"RUA COS LAFAYETE, 579",,-3.717745,-38.585326,,,0,,,,POINT (-38.585326 -3.717745),2.0,JARDIM IRACEMA
1543,,"RUA ANDRE REBOUCAS, 60",,-3.774236,-38.588913,,,0,,,,POINT (-38.588913 -3.774236),66.0,BONSUCESSO
1544,,"RUA CACILDA BECKER, 261",,-3.7734,-38.588136,,,0,,,,POINT (-38.588136 -3.7734),110.0,JOÃO XXIII
1545,,"RUA VERBENA, 288",,-3.77726,-38.587893,,,0,,,,POINT (-38.587893 -3.77726),66.0,BONSUCESSO
1546,,"RUA JULIO BRAGA, 1740",,-3.773579,-38.585959,,,0,,,,POINT (-38.585959 -3.773579),110.0,JOÃO XXIII
1547,,"AVENIDA LINEU MACHADO, 1934",,-3.776099,-38.58225,,,0,,,,POINT (-38.58225 -3.776099),66.0,BONSUCESSO
1548,,"AVENIDA LINEU MACHADO, 1936",,-3.776049,-38.582224,,,0,,,,POINT (-38.582224 -3.776049),66.0,BONSUCESSO
1549,,"AVENIDA LINEU MACHADO, 1772",,-3.774897,-38.58157,,,0,,,,POINT (-38.58157 -3.774897),110.0,JOÃO XXIII
155,,"RUA COS LAFAYETE, 706",,-3.717682,-38.586023,,,0,,,,POINT (-38.586023 -3.717682),2.0,JARDIM IRACEMA
1550,,"AVENIDA LINEU MACHADO, 1785",,-3.774842,-38.581542,,,0,,,,POINT (-38.581542 -3.774842),110.0,JOÃO XXIII
1551,,"AVENIDA LINEU MACHADO, 1634",,-3.773662,-38.580925,,,0,,,,POINT (-38.580925 -3.773662),110.0,JOÃO XXIII
1552,,"RUA MELO DE OLIVEIRA, 1088",,-3.774969,-38.579472,,,0,,,,POINT (-38.579472 -3.774969),61.0,JÓQUEI CLUBE
1553,,"RUA VERBENA, 60",,-3.78026,-38.588539,,,0,,,,POINT (-38.588539 -3.78026),66.0,BONSUCESSO
1556,,"RUA CARLOS CHAGAS, 643",,-3.779905,-38.586055,,,0,,,,POINT (-38.586055 -3.779905),66.0,BONSUCESSO
1557,,"RUA CARLOS CHAGAS, 611",,-3.779996,-38.585739,,,0,,,,POINT (-38.585739 -3.779996),66.0,BONSUCESSO
1558,,"RUA CARLOS CHAGAS, 409",,-3.780518,-38.583904,,,0,,,,POINT (-38.583904 -3.780518),66.0,BONSUCESSO
1559,,"RUA CARLOS CHAGAS, 400",,-3.780526,-38.583874,,,0,,,,POINT (-38.583874 -3.780526),66.0,BONSUCESSO
1560,,"RUA ARAÇA, 183",,-3.779571,-38.583274,,,0,,,,POINT (-38.583274 -3.779571),66.0,BONSUCESSO
1561,,"RUA ARAÇA, 164",,-3.779455,-38.583246,,,0,,,,POINT (-38.583246 -3.779455),66.0,BONSUCESSO
1562,,"AVENIDA LINEU MACHADO, 2076",,-3.777513,-38.58299,,,0,,,,POINT (-38.58299 -3.777513),66.0,BONSUCESSO
1563,,"AVENIDA AUGUSTO DOS ANJOS, 1786",,-3.781577,-38.580391,,,0,,,,POINT (-38.580391 -3.781577),66.0,BONSUCESSO
1564,,"AVENIDA AUGUSTO DOS ANJOS, 1738",,-3.781428,-38.580259,,,0,,,,POINT (-38.580259 -3.781428),66.0,BONSUCESSO
1565,,"RUA PDE PERDIGAO SAMPAIO, 200",,-3.735845,-38.595326,,,0,,,,POINT (-38.595326 -3.735845),37.0,QUINTINO CUNHA
1566,,"AVENIDA VICENTE DE CASTRO, 6920",,-3.708966,-38.471397,,,0,,,,POINT (-38.471397 -3.708966),92.0,CAIS DO PORTO
1567,,"AVENIDA VICENTE DE CASTRO, 6920",,-3.70894,-38.471207,,,0,,,,POINT (-38.471207 -3.70894),92.0,CAIS DO PORTO
1568,,"AVENIDA ZEZE DIOGO, 159",,-3.709145,-38.468588,,,0,,,,POINT (-38.468588 -3.709145),92.0,CAIS DO PORTO
1569,,"AVENIDA VICENTE DE CASTRO, S/N",,-3.713389,-38.473136,,,0,,,,POINT (-38.473136 -3.713389),92.0,CAIS DO PORTO
1570,,"AVENIDA VICENTE DE CASTRO, S/N",,-3.712234,-38.472676,,,0,,,,POINT (-38.472676 -3.712234),92.0,CAIS DO PORTO
1571,,"AVENIDA VICENTE DE CASTRO, 6074",,-3.711457,-38.472195,,,0,,,,POINT (-38.472195 -3.711457),92.0,CAIS DO PORTO
1572,,"AVENIDA JOSE SABOIA, 115",,-3.713961,-38.472958,,,0,,,,POINT (-38.472958 -3.713961),92.0,CAIS DO PORTO
1573,,"AVENIDA VICENTE DE CASTRO, 5151",,-3.71904,-38.475226,,,0,,,,POINT (-38.475226 -3.71904),92.0,CAIS DO PORTO
1574,,"AVENIDA VICENTE DE CASTRO, 6001",,-3.71625,-38.475028,,,0,,,,POINT (-38.475028 -3.71625),92.0,CAIS DO PORTO
1575,,"AVENIDA VICENTE DE CASTRO, 6001",,-3.715963,-38.474639,,,0,,,,POINT (-38.474639 -3.715963),92.0,CAIS DO PORTO
1576,,"AVENIDA VICENTE DE CASTRO, 6001",,-3.714822,-38.474031,,,0,,,,POINT (-38.474031 -3.714822),92.0,CAIS DO PORTO
1577,,"AVENIDA VICENTE DE CASTRO, 6001",,-3.714579,-38.473664,,,0,,,,POINT (-38.473664 -3.714579),92.0,CAIS DO PORTO
1579,,"AVENIDA JOSE SABOIA, 113",,-3.71446,-38.471365,,,0,,,,POINT (-38.471365 -3.71446),92.0,CAIS DO PORTO
1580,,"AVENIDA ZEZE DIOGO, 487",,-3.711288,-38.467358,,,0,,,,POINT (-38.467358 -3.711288),92.0,CAIS DO PORTO
1581,,"AVENIDA ZEZE DIOGO, 493",,-3.712908,-38.466587,,,0,,,,POINT (-38.466587 -3.712908),92.0,CAIS DO PORTO
1582,,"AVENIDA ZEZE DIOGO, 669",,-3.712582,-38.46674,,,0,,,,POINT (-38.46674 -3.712582),92.0,CAIS DO PORTO
1583,,"AVENIDA JOSE SABOIA, 521",,-3.717357,-38.467105,,,0,,,,POINT (-38.467105 -3.717357),92.0,CAIS DO PORTO
1584,,"AVENIDA JOSE SABOIA, 780",,-3.717426,-38.467006,,,0,,,,POINT (-38.467006 -3.717426),92.0,CAIS DO PORTO
1585,,"AVENIDA ZEZE DIOGO, 1195",,-3.717814,-38.464357,,,0,,,,POINT (-38.464357 -3.717814),92.0,CAIS DO PORTO
1586,,"AVENIDA ZEZE DIOGO, 1087",,-3.716759,-38.46483,,,0,,,,POINT (-38.46483 -3.716759),92.0,CAIS DO PORTO
1587,,"AVENIDA ZEZE DIOGO, 659",,-3.714903,-38.465668,,,0,,,,POINT (-38.465668 -3.714903),92.0,CAIS DO PORTO
1588,,"AVENIDA ZEZE DIOGO, 655",,-3.714802,-38.465715,,,0,,,,POINT (-38.465715 -3.714802),92.0,CAIS DO PORTO
159,,"RUA TEODOMIRO DE CASTRO, 6715",,-3.715536,-38.580299,,,0,,,,POINT (-38.580299 -3.715536),59.0,BARRA DO CEARÁ
1594,,"AVENIDA PDE IBIAPINA, 1446",,-3.727757,-38.540341,,,0,,,,POINT (-38.540341 -3.727757),24.0,CENTRO
1598,,"AVENIDA DUQ CAXIAS, 1327",,-3.729714,-38.536079,,,0,,,,POINT (-38.536079 -3.729714),24.0,CENTRO
1599,,"AVENIDA IMPERADOR, 1190",,-3.731303,-38.535702,,,0,,,,POINT (-38.535702 -3.731303),24.0,CENTRO
160,,"RUA RAIMUNDO FROTA, 6726",,-3.715352,-38.580814,,,0,,,,POINT (-38.580814 -3.715352),59.0,BARRA DO CEARÁ
1600,,"RUA METON DE ALENCAR, 1520",,-3.731541,-38.537187,,,0,,,,POINT (-38.537187 -3.731541),24.0,CENTRO
1604,,"AVENIDA IMPERADOR, 1360",,-3.733315,-38.536303,,,0,,,,POINT (-38.536303 -3.733315),17.0,FARIAS BRITO
1605,,"AVENIDA IMPERADOR, 1433",,-3.733544,-38.536373,,,0,,,,POINT (-38.536373 -3.733544),17.0,FARIAS BRITO
1606,,"AVENIDA IMPERADOR, 1459",,-3.733841,-38.536465,,,0,,,,POINT (-38.536465 -3.733841),17.0,FARIAS BRITO
1607,,"AVENIDA IMPERADOR, 1479",,-3.73413,-38.536554,,,0,,,,POINT (-38.536554 -3.73413),17.0,FARIAS BRITO
1608,,"AVENIDA IMPERADOR, 1499",,-3.734477,-38.53666,,,0,,,,POINT (-38.53666 -3.734477),17.0,FARIAS BRITO
1609,,"RUA DOMINGOS OLIMPIO, S/N",,-3.735088,-38.536187,,,0,,,,POINT (-38.536187 -3.735088),51.0,BENFICA
161,,"RUA RAIMUNDO FROTA, 115",,-3.715172,-38.582146,,,0,,,,POINT (-38.582146 -3.715172),2.0,JARDIM IRACEMA
1610,,"AVENIDA IMPERADOR, 1738",,-3.736164,-38.537115,,,0,,,,POINT (-38.537115 -3.736164),17.0,FARIAS BRITO
1614,,"RUA PERDIGAO DE OLIVEIRA, 780",,-3.774895,-38.576157,,,0,,,,POINT (-38.576157 -3.774895),61.0,JÓQUEI CLUBE
1615,,"RUA PERDIGAO DE OLIVEIRA, 651",,-3.774977,-38.57549,,,0,,,,POINT (-38.57549 -3.774977),61.0,JÓQUEI CLUBE
1617,,"AVENIDA AUGUSTO DOS ANJOS, 1150",,-3.777127,-38.576497,,,0,,,,POINT (-38.576497 -3.777127),87.0,PARANGABA
1618,,"AVENIDA AUGUSTO DOS ANJOS, 749",,-3.774524,-38.574157,,,0,,,,POINT (-38.574157 -3.774524),87.0,PARANGABA
1619,,"AVENIDA AUGUSTO DOS ANJOS, 700",,-3.774629,-38.574251,,,0,,,,POINT (-38.574251 -3.774629),87.0,PARANGABA
162,,"RUA TEODORO DE CASTRO, 6614",,-3.715777,-38.579648,,,0,,,,POINT (-38.579648 -3.715777),2.0,JARDIM IRACEMA
1622,,"AVENIDA GAL OSORIO DE PAIVA, 852",,-3.777667,-38.569707,,,0,,,,POINT (-38.569707 -3.777667),87.0,PARANGABA
1623,,"RUA CÔNEGO DE CASTRO, 710",,-3.779162,-38.568099,,,0,,,,POINT (-38.568099 -3.779162),87.0,PARANGABA
1624,,"RUA CÔNEGO DE CASTRO, SN",,-3.779589,-38.568477,,,0,,,,POINT (-38.568477 -3.779589),87.0,PARANGABA
1625,,"RUA CÔNEGO DE CASTRO, 956",,-3.780504,-38.569285,,,0,,,,POINT (-38.569285 -3.780504),87.0,PARANGABA
1627,,"RUA CON CASTRO, 956",,-3.781219,-38.569941,,,0,,,,POINT (-38.569941 -3.781219),87.0,PARANGABA
1628,,"AVENIDA GAL OSORIO DE PAIVA, SN",,-3.778935,-38.571824,,,0,,,,POINT (-38.571824 -3.778935),87.0,PARANGABA
1629,,"AVENIDA GAL OSORIO DE PAIVA, 1293",,-3.778921,-38.571692,,,0,,,,POINT (-38.571692 -3.778921),87.0,PARANGABA
163,,"RUA TULIPA, 687",,-3.716289,-38.580224,,,0,,,,POINT (-38.580224 -3.716289),2.0,JARDIM IRACEMA
1630,,"AVENIDA GAL OSÓRIO DE PAIVA, 1293",,-3.779915,-38.573261,,,0,,,,POINT (-38.573261 -3.779915),87.0,PARANGABA
1632,,"AVENIDA GAL OSORIO DE PAIVA, SN",,-3.780301,-38.574004,,,0,,,,POINT (-38.574004 -3.780301),87.0,PARANGABA
1633,,"AVENIDA GAL OSORIO DE PAIVA, 1591",,-3.781093,-38.575049,,,0,,,,POINT (-38.575049 -3.781093),87.0,PARANGABA
1635,,"AVENIDA AUGUSTO DOS ANJOS, 1417",,-3.778928,-38.578065,,,0,,,,POINT (-38.578065 -3.778928),87.0,PARANGABA
1636,,"AVENIDA AUGUSTO DOS ANJOS, 1314",,-3.778575,-38.57776,,,0,,,,POINT (-38.57776 -3.778575),87.0,PARANGABA
1637,,"AVENIDA GAL OSORIO DE PAIVA, SN",,-3.775196,-38.565934,,,0,,,,POINT (-38.565934 -3.775196),87.0,PARANGABA
1638,,"RUA EDUARDO PERDIGAO, 118",,-3.775257,-38.565026,,,0,,,,POINT (-38.565026 -3.775257),87.0,PARANGABA
1639,,"RUA CON CASTRO, 403",,-3.777326,-38.566422,,,0,,,,POINT (-38.566422 -3.777326),87.0,PARANGABA
164,,"RUA TULIPA, 696",,-3.716505,-38.580306,,,0,,,,POINT (-38.580306 -3.716505),2.0,JARDIM IRACEMA
1641,,"AVENIDA GAL OSORIO DE PAIVA, 600",,-3.776414,-38.567843,,,0,,,,POINT (-38.567843 -3.776414),87.0,PARANGABA
1642,,"AVENIDA GAL OSORIO DE PAIVA, 426",,-3.776059,-38.567162,,,0,,,,POINT (-38.567162 -3.776059),87.0,PARANGABA
1643,,"AVENIDA OSORIO DE PAIVA, 110",,-3.77318,-38.563736,,,0,,,,POINT (-38.563736 -3.77318),87.0,PARANGABA
1644,,"AVENIDA CARLOS AMORA, 34",,-3.774241,-38.564402,,,0,,,,POINT (-38.564402 -3.774241),87.0,PARANGABA
1645,,"RUA CON CASTRO, 77",,-3.77497,-38.564195,,,0,,,,POINT (-38.564195 -3.77497),87.0,PARANGABA
1646,,"RUA 7 DE SETEMBRO, SN",,-3.773387,-38.562634,,,0,,,,POINT (-38.562634 -3.773387),87.0,PARANGABA
1647,,"AVENIDA GODOFREDO MACIEL, SN",,-3.777888,-38.56422,,,0,,,,POINT (-38.56422 -3.777888),87.0,PARANGABA
1649,,"RUA GERMANO FRANCK, 375",,-3.775657,-38.560381,,,0,,,,POINT (-38.560381 -3.775657),87.0,PARANGABA
165,,"RUA TULIPA, 847",,-3.717812,-38.580795,,,0,,,,POINT (-38.580795 -3.717812),2.0,JARDIM IRACEMA
1650,,"RUA GERMANO FRANCK, 103A",,-3.773941,-38.558113,,,0,,,,POINT (-38.558113 -3.773941),36.0,ITAOCA
1652,,"AVENIDA DEDÉ BRASIL, 824",,-3.78085,-38.558296,,,0,,,,POINT (-38.558296 -3.78085),82.0,ITAPERI
1654,,"AVENIDA DEDE BRASIL, 565",,-3.779819,-38.559999,,,0,,,,POINT (-38.559999 -3.779819),87.0,PARANGABA
1655,,"AVENIDA SILA MUNGUBA, 450",,-3.778778,-38.561122,,,0,,,,POINT (-38.561122 -3.778778),87.0,PARANGABA
1656,,"RUA CASIMIRO DE ABREU, 101",,-3.780686,-38.561693,,,0,,,,POINT (-38.561693 -3.780686),87.0,PARANGABA
1657,,"AVENIDA SILAS MUNGUBA, SN",,-3.777758,-38.561646,,,0,,,,POINT (-38.561646 -3.777758),87.0,PARANGABA
1658,,"AVENIDA GODOFREDO MACIEL, 522",,-3.780839,-38.565172,,,0,,,,POINT (-38.565172 -3.780839),87.0,PARANGABA
1659,,"AVENIDA GODOFREDO MACIEL, 603",,-3.781936,-38.565341,,,0,,,,POINT (-38.565341 -3.781936),87.0,PARANGABA
166,,"RUA COS LAFAYETE, 15",,-3.718347,-38.579019,,,0,,,,POINT (-38.579019 -3.718347),65.0,FLORESTA
1663,,"RUA JULIO VERNE, 208",,-3.775904,-38.551516,,,0,,,,POINT (-38.551516 -3.775904),39.0,SERRINHA
1666,,"AVENIDA PEDRO ALVARES CABRAL, 741",,-3.777552,-38.548093,,,0,,,,POINT (-38.548093 -3.777552),117.0,AEROPORTO
1668,,"AVENIDA CARLOS JEREISSATI, 719",,-3.77751,-38.54791,,,0,,,,POINT (-38.54791 -3.77751),117.0,AEROPORTO
167,,"RUA COS LAFAYETE, 276",,-3.718199,-38.58057,,,0,,,,POINT (-38.58057 -3.718199),65.0,FLORESTA
1671,,"RUA CON LIMA SUCUPIRA, S/N",,-3.779159,-38.54776,,,0,,,,POINT (-38.54776 -3.779159),39.0,SERRINHA
1673,,"RUA CON LIMA SUCUPIRA, 1567",,-3.778721,-38.549099,,,0,,,,POINT (-38.549099 -3.778721),39.0,SERRINHA
1677,,"RUA GOV JOAO CARLOS, 330",,-3.778391,-38.551693,,,0,,,,POINT (-38.551693 -3.778391),39.0,SERRINHA
1678,,"RUA DOR JUSTA ARAUJO   (D45), 485",,-3.78,-38.551575,,,0,,,,POINT (-38.551575 -3.78),39.0,SERRINHA
1679,,"AVENIDA C CJ CEARA, 1075",,-3.768174,-38.612594,,,0,,,,POINT (-38.612594 -3.768174),47.0,CONJUNTO CEARÁ II
1680,,"AVENIDA C CJ CEARA, 1035",,-3.7678,-38.61227,,,0,,,,POINT (-38.61227 -3.7678),47.0,CONJUNTO CEARÁ II
1681,,"AVENIDA C CJ CEARA, 925",,-3.767184,-38.611737,,,0,,,,POINT (-38.611737 -3.767184),47.0,CONJUNTO CEARÁ II
1691,,"AVENIDA TRISTAO GONCALVES, 1153",,-3.731735,-38.5346,,,0,,,,POINT (-38.5346 -3.731735),24.0,CENTRO
1692,,"AVENIDA IMPERADOR, 462",,-3.727993,-38.534757,,,0,,,,POINT (-38.534757 -3.727993),24.0,CENTRO
1693,,"AVENIDA DUQ CAXIAS, 808",,-3.731142,-38.531694,,,0,,,,POINT (-38.531694 -3.731142),24.0,CENTRO
1697,,"RUA GAL SAMPAIO, 1235",,-3.729604,-38.531583,,,0,,,,POINT (-38.531583 -3.729604),24.0,CENTRO
170,,"RUA VERBENA, 713",,-3.783218,-38.589355,,,0,,,,POINT (-38.589355 -3.783218),66.0,BONSUCESSO
1708,,"RUA PEDRO PRIMEIRO, 373",,-3.731437,-38.527972,,,0,,,,POINT (-38.527972 -3.731437),24.0,CENTRO
171,,"RUA ANSELMO NOGUEIRA, 430",,-3.782239,-38.587502,,,0,,,,POINT (-38.587502 -3.782239),66.0,BONSUCESSO
1713,,"RUA METON DE ALENCAR, 1713",,-3.732794,-38.533311,,,0,,,,POINT (-38.533311 -3.732794),24.0,CENTRO
1715,,"AVENIDA TRISTAO GONCALVES, 1441",,-3.734475,-38.535412,,,0,,,,POINT (-38.535412 -3.734475),51.0,BENFICA
1716,,"RUA DOMINGOS OLIMPIO, 1275",,-3.735376,-38.534588,,,0,,,,POINT (-38.534588 -3.735376),51.0,BENFICA
1717,,"AVENIDA DA UNIVERSIDADE, 2068",,-3.735906,-38.5345,,,0,,,,POINT (-38.5345 -3.735906),51.0,BENFICA
172,,"RUA EMILIO DE MENESES, 385",,-3.782373,-38.585227,,,0,,,,POINT (-38.585227 -3.782373),66.0,BONSUCESSO
1722,,"RUA GAL SAMPAIO, 1731",,-3.733389,-38.532704,,,0,,,,POINT (-38.532704 -3.733389),24.0,CENTRO
1723,,"RUA SEN POMPEU, SN",,-3.733923,-38.531742,,,0,,,,POINT (-38.531742 -3.733923),24.0,CENTRO
1726,,"RUA ASSUNCAO, 670",,-3.736072,-38.529174,,,0,,,,POINT (-38.529174 -3.736072),12.0,JOSÉ BONIFÁCIO
1727,,"RUA ASSUNCAO, 473",,-3.733991,-38.528479,,,0,,,,POINT (-38.528479 -3.733991),24.0,CENTRO
1729,,"AVENIDA DUQ CAXIAS, 365",,-3.732443,-38.52765,,,0,,,,POINT (-38.52765 -3.732443),24.0,CENTRO
173,,"RUA VITAL BRASIL, 198",,-3.781917,-38.584257,,,0,,,,POINT (-38.584257 -3.781917),66.0,BONSUCESSO
174,,"AVENIDA GAL OSORIO DE PAIVA, 2165",,-3.784967,-38.581413,,,0,,,,POINT (-38.581413 -3.784967),83.0,VILA PERI
1740,,"RUA ANTONIO POMPEU, 120",,-3.736555,-38.525022,,,0,,,,POINT (-38.525022 -3.736555),24.0,CENTRO
1741,,"AVENIDA POCINHO, 55",,-3.728306,-38.522726,,,0,,,,POINT (-38.522726 -3.728306),24.0,CENTRO
1742,,"AVENIDA DOM MANUEL, 591",,-3.729813,-38.521528,,,0,,,,POINT (-38.521528 -3.729813),24.0,CENTRO
1743,,"AVENIDA DOM MANUEL, S/N",,-3.731674,-38.522229,,,0,,,,POINT (-38.522229 -3.731674),24.0,CENTRO
1744,,"AVENIDA DOM MANUEL, 811",,-3.731794,-38.522165,,,0,,,,POINT (-38.522165 -3.731794),24.0,CENTRO
1745,,"AVENIDA DOM MANUEL, 470",,-3.72782,-38.520986,,,0,,,,POINT (-38.520986 -3.72782),24.0,CENTRO
1746,,"RUA COSTA BARROS, 539",,-3.72797,-38.518986,,,0,,,,POINT (-38.518986 -3.72797),24.0,CENTRO
1747,,"RUA COSTA BARROS, 915",,-3.729033,-38.515598,,,0,,,,POINT (-38.515598 -3.729033),24.0,CENTRO
1749,,"RUA PEREIRA FILGUEIRAS, 933",,-3.727864,-38.514378,,,0,,,,POINT (-38.514378 -3.727864),24.0,CENTRO
1750,,"AVENIDA SANTOS DUMONT, 1075",,-3.730977,-38.514478,,,0,,,,POINT (-38.514478 -3.730977),108.0,ALDEOTA
1752,,"AVENIDA HERACLITO GRACA, 33",,-3.73354,-38.524224,,,0,,,,POINT (-38.524224 -3.73354),24.0,CENTRO
1754,,"AVENIDA DOM MANUEL, 1344",,-3.735664,-38.523549,,,0,,,,POINT (-38.523549 -3.735664),24.0,CENTRO
1755,,"AVENIDA DOM MANUEL, 1305",,-3.735496,-38.523388,,,0,,,,POINT (-38.523388 -3.735496),24.0,CENTRO
1756,,"AVENIDA VIS RIO BRANCO, 1636",,-3.735056,-38.524297,,,0,,,,POINT (-38.524297 -3.735056),24.0,CENTRO
1757,,"RUA ROCHA LIMA, 231",,-3.736533,-38.521805,,,0,,,,POINT (-38.521805 -3.736533),24.0,CENTRO
176,,"AVENIDA GAL OSORIO DE PAIVA, 1919",,-3.784002,-38.579657,,,0,,,,POINT (-38.579657 -3.784002),83.0,VILA PERI
1760,,"RUA DNA LEOPOLDINA, 1165",,-3.7351,-38.520909,,,0,,,,POINT (-38.520909 -3.7351),24.0,CENTRO
1761,,"AVENIDA HERACLITO GRACA, 421",,-3.734783,-38.520288,,,0,,,,POINT (-38.520288 -3.734783),24.0,CENTRO
1765,,"AVENIDA HERACLITO GRACA, 1177",,-3.736556,-38.514848,,,0,,,,POINT (-38.514848 -3.736556),108.0,ALDEOTA
1766,,"RUA PEREIRA FILGUEIRAS, 1295",,-3.728872,-38.511343,,,0,,,,POINT (-38.511343 -3.728872),108.0,ALDEOTA
1767,,"RUA COSTA BARROS, 1391",,-3.730642,-38.510679,,,0,,,,POINT (-38.510679 -3.730642),108.0,ALDEOTA
1768,,"RUA COSTA BARROS, 1226",,-3.729942,-38.512808,,,0,,,,POINT (-38.512808 -3.729942),108.0,ALDEOTA
1769,,"AVENIDA SANTOS DUMONT, 1400",,-3.732063,-38.511142,,,0,,,,POINT (-38.511142 -3.732063),108.0,ALDEOTA
177,,"RUA GABRIEL FIUZA, 393",,-3.786824,-38.580163,,,0,,,,POINT (-38.580163 -3.786824),83.0,VILA PERI
1770,,"RUA TEN BENEVOLO, 1446",,-3.72857,-38.5074,,,0,,,,POINT (-38.5074 -3.72857),10.0,MEIRELES
1771,,"RUA TEN BENEVOLO, 1266",,-3.727667,-38.510149,,,0,,,,POINT (-38.510149 -3.727667),10.0,MEIRELES
1772,,"RUA PEREIRA FILGUEIRAS, 1550 A",,-3.729604,-38.509075,,,0,,,,POINT (-38.509075 -3.729604),108.0,ALDEOTA
1776,,"RUA PEREIRA FILGUEIRAS, 1817",,-3.730318,-38.506889,,,0,,,,POINT (-38.506889 -3.730318),108.0,ALDEOTA
1777,,"RUA PEREIRA FILGUEIRAS, 2020",,-3.731056,-38.50461,,,0,,,,POINT (-38.50461 -3.731056),108.0,ALDEOTA
1778,,"AVENIDA BAR STUDART, 800",,-3.731387,-38.505613,,,0,,,,POINT (-38.505613 -3.731387),108.0,ALDEOTA
1779,,"AVENIDA BAR STUDART, 825",,-3.731778,-38.505639,,,0,,,,POINT (-38.505639 -3.731778),108.0,ALDEOTA
178,,"RUA GABRIEL FIUZA, 220",,-3.787517,-38.579432,,,0,,,,POINT (-38.579432 -3.787517),83.0,VILA PERI
1780,,"AVENIDA SANTOS DUMONT, 1673",,-3.732771,-38.508982,,,0,,,,POINT (-38.508982 -3.732771),108.0,ALDEOTA
1781,,"AVENIDA SANTOS DUMONT, 1890",,-3.733379,-38.507134,,,0,,,,POINT (-38.507134 -3.733379),108.0,ALDEOTA
1782,,"RUA COSTA BARROS, 2201",,-3.732952,-38.503615,,,0,,,,POINT (-38.503615 -3.732952),108.0,ALDEOTA
1783,,"RUA COSTA BARROS, 2070",,-3.732445,-38.505171,,,0,,,,POINT (-38.505171 -3.732445),108.0,ALDEOTA
1785,,"AVENIDA BAR STUDART, 1071",,-3.733892,-38.506321,,,0,,,,POINT (-38.506321 -3.733892),108.0,ALDEOTA
1786,,"AVENIDA BAR STUDART, 1148",,-3.734971,-38.506752,,,0,,,,POINT (-38.506752 -3.734971),108.0,ALDEOTA
1787,,"RUA PEREIRA FILGUEIRAS, 2280",,-3.73169,-38.502594,,,0,,,,POINT (-38.502594 -3.73169),10.0,MEIRELES
1788,,"RUA TEN BENEVOLO, 2165",,-3.730287,-38.502073,,,0,,,,POINT (-38.502073 -3.730287),10.0,MEIRELES
179,,"AVENIDA CARDOSO DE BARROS, 2395",,-3.786522,-38.583557,,,0,,,,POINT (-38.583557 -3.786522),83.0,VILA PERI
1790,,"AVENIDA DES MOREIRA, SN",,-3.729866,-38.496272,,,0,,,,POINT (-38.496272 -3.729866),10.0,MEIRELES
1792,,"AVENIDA DES MOREIRA, 615",,-3.731719,-38.496881,,,0,,,,POINT (-38.496881 -3.731719),10.0,MEIRELES
1793,,"AVENIDA DES MOREIRA, 115",,-3.727983,-38.495654,,,0,,,,POINT (-38.495654 -3.727983),10.0,MEIRELES
1795,,"AVENIDA ANTONIO JUSTA, 3113",,-3.728028,-38.493314,,,0,,,,POINT (-38.493314 -3.728028),10.0,MEIRELES
1796,,"AVENIDA ANTONIO JUSTA, 2980",,-3.728192,-38.492837,,,0,,,,POINT (-38.492837 -3.728192),10.0,MEIRELES
1797,,"RUA ANA BILHAR, 770",,-3.73014,-38.493588,,,0,,,,POINT (-38.493588 -3.73014),10.0,MEIRELES
1798,,"RUA ANA BILHAR, 491",,-3.729426,-38.495807,,,0,,,,POINT (-38.495807 -3.729426),10.0,MEIRELES
18,,"AVENIDA CIRCULACAO, 564",,-3.705787,-38.590918,,,0,,,,POINT (-38.590918 -3.705787),59.0,BARRA DO CEARÁ
180,,"AVENIDA GAL OSORIO DE PAIVA, 2373",,-3.786312,-38.583488,,,0,,,,POINT (-38.583488 -3.786312),83.0,VILA PERI
1801,,"RUA OSVALDO CRUZ, 1170",,-3.73619,-38.500507,,,0,,,,POINT (-38.500507 -3.73619),108.0,ALDEOTA
1804,,"AVENIDA DOM LUIS, 230",,-3.732502,-38.499696,,,0,,,,POINT (-38.499696 -3.732502),10.0,MEIRELES
1806,,"AVENIDA DESEMBARGADOR MOREIRA, 1020",,-3.734979,-38.497963,,,0,,,,POINT (-38.497963 -3.734979),108.0,ALDEOTA
1807,,"AVENIDA DESEMBARGADOR MOREIRA, 940",,-3.734001,-38.497747,,,0,,,,POINT (-38.497747 -3.734001),108.0,ALDEOTA
181,,"AVENIDA OSORIO DE PAIVA, 2834",,-3.788709,-38.586406,,,0,,,,POINT (-38.586406 -3.788709),66.0,BONSUCESSO
1812,,"AVENIDA ANTONIO JUSTA, 3320",,-3.728673,-38.491325,,,0,,,,POINT (-38.491325 -3.728673),10.0,MEIRELES
1813,,"AVENIDA ANTONIO JUSTA, 3301",,-3.728513,-38.491831,,,0,,,,POINT (-38.491831 -3.728513),10.0,MEIRELES
1816,,"RUA FRE MANSUETO, 770",,-3.731408,-38.488848,,,0,,,,POINT (-38.488848 -3.731408),10.0,MEIRELES
182,,"AVENIDA GAL OSORIO DE PAIVA, 1738",,-3.782364,-38.577204,,,0,,,,POINT (-38.577204 -3.782364),83.0,VILA PERI
1822,,"RUA CANINDE    (D48), 797",,-3.728221,-38.482147,,,0,,,,POINT (-38.482147 -3.728221),13.0,MUCURIPE
1824,,"AVENIDA ALM HENRIQUE SABOIA, 2364",,-3.732066,-38.482718,,,0,,,,POINT (-38.482718 -3.732066),35.0,VARJOTA
1825,,"AVENIDA ALM HENRIQUE SABOIA, 2364",,-3.732376,-38.482763,,,0,,,,POINT (-38.482763 -3.732376),35.0,VARJOTA
1826,,"RUA MERUOCA, 80",,-3.730308,-38.48296,,,0,,,,POINT (-38.48296 -3.730308),13.0,MUCURIPE
1827,,"RUA MES JERONIMO    (D48), 233",,-3.729446,-38.481757,,,0,,,,POINT (-38.481757 -3.729446),13.0,MUCURIPE
1828,,"RUA MES JERONIMO    (D48), 233",,-3.72933,-38.481708,,,0,,,,POINT (-38.481708 -3.72933),13.0,MUCURIPE
183,,"AVENIDA GAL OSORIO DE PAIVA, 1781",,-3.782807,-38.577651,,,0,,,,POINT (-38.577651 -3.782807),83.0,VILA PERI
1830,,"AVENIDA DOM LUIS, 1200",,-3.735624,-38.490029,,,0,,,,POINT (-38.490029 -3.735624),10.0,MEIRELES
1837,,"RUA CASTRO MONTE, 284",,-3.734929,-38.485958,,,0,,,,POINT (-38.485958 -3.734929),35.0,VARJOTA
1838,,"AVENIDA JULIO ABREU, 315",,-3.735893,-38.487623,,,0,,,,POINT (-38.487623 -3.735893),35.0,VARJOTA
1839,,"AVENIDA ENG SANTANA JUNIOR, 970",,-3.736718,-38.482669,,,0,,,,POINT (-38.482669 -3.736718),85.0,PAPICU
1842,,"RUA MANUEL JESUINO, 807",,-3.732748,-38.484953,,,0,,,,POINT (-38.484953 -3.732748),35.0,VARJOTA
1845,,"AVENIDA ENG SANTANA JUNIOR, 303",,-3.732059,-38.479816,,,0,,,,POINT (-38.479816 -3.732059),106.0,VICENTE PINZON
1847,,"AVENIDA ALM HENRIQUE SABOIA, S/Nº",,-3.727141,-38.480385,,,0,,,,POINT (-38.480385 -3.727141),13.0,MUCURIPE
1848,,"AVENIDA ALM HENRIQUE SABOIA, S/Nº",,-3.727135,-38.480502,,,0,,,,POINT (-38.480502 -3.727135),13.0,MUCURIPE
1849,,"RUA OLIVEIRA VIANA, 585",,-3.731798,-38.475525,,,0,,,,POINT (-38.475525 -3.731798),106.0,VICENTE PINZON
185,,"RUA LINS DO REGO, 115",,-3.783435,-38.576433,,,0,,,,POINT (-38.576433 -3.783435),83.0,VILA PERI
1850,,"RUA OLIVEIRA VIANA, 566",,-3.731784,-38.475576,,,0,,,,POINT (-38.475576 -3.731784),106.0,VICENTE PINZON
1851,,"RUA ENG PLACIDO C JUNIOR D56, 430",,-3.731164,-38.476822,,,0,,,,POINT (-38.476822 -3.731164),106.0,VICENTE PINZON
1852,,"RUA ENG PLACIDO C JUNIOR D56, 430",,-3.7312,-38.476785,,,0,,,,POINT (-38.476785 -3.7312),106.0,VICENTE PINZON
1854,,"RUA ENG PLACIDO C JUNIOR D56, 316",,-3.730353,-38.477616,,,0,,,,POINT (-38.477616 -3.730353),106.0,VICENTE PINZON
1855,,"AVENIDA AREIA BRANCA, 380",,-3.727684,-38.475613,,,0,,,,POINT (-38.475613 -3.727684),106.0,VICENTE PINZON
1856,,"RUA CRISTO REDENTOR, 80",,-3.728156,-38.475886,,,0,,,,POINT (-38.475886 -3.728156),106.0,VICENTE PINZON
1858,,"RUA VENEZA, 401A",,-3.728139,-38.473016,,,0,,,,POINT (-38.473016 -3.728139),106.0,VICENTE PINZON
1861,,"AVENIDA AREIA BRANCA, S/N",,-3.728319,-38.473623,,,0,,,,POINT (-38.473623 -3.728319),106.0,VICENTE PINZON
1862,,"RUA JOSE C.G. NOGUEIRA, 142",,-3.731003,-38.47286,,,0,,,,POINT (-38.47286 -3.731003),106.0,VICENTE PINZON
1863,,"RUA JOSE C.G. NOGUEIRA, 280",,-3.730952,-38.472826,,,0,,,,POINT (-38.472826 -3.730952),106.0,VICENTE PINZON
1864,,"RUA JOSE C.G. NOGUEIRA, 147",,-3.732095,-38.473465,,,0,,,,POINT (-38.473465 -3.732095),106.0,VICENTE PINZON
1865,,"AVENIDA ENG SANTANA JUNIOR, 639",,-3.733658,-38.480862,,,0,,,,POINT (-38.480862 -3.733658),85.0,PAPICU
1866,,"AVENIDA ENG SANTANA JUNIOR, 663",,-3.733954,-38.480893,,,0,,,,POINT (-38.480893 -3.733954),85.0,PAPICU
1868,,"AVENIDA ENG ALBERTO SA, 175",,-3.733653,-38.478963,,,0,,,,POINT (-38.478963 -3.733653),106.0,VICENTE PINZON
1870,,"AVENIDA ENG ALBERTO SA, 480",,-3.734393,-38.476433,,,0,,,,POINT (-38.476433 -3.734393),106.0,VICENTE PINZON
1873,,"AVENIDA ENG ALBERTO SA, 1280",,-3.735783,-38.47157,,,0,,,,POINT (-38.47157 -3.735783),106.0,VICENTE PINZON
1875,,"RUA PRO HERACLITO, 785",,-3.732946,-38.473958,,,0,,,,POINT (-38.473958 -3.732946),106.0,VICENTE PINZON
1876,,"RUA PRO HERACLITO, 744",,-3.732841,-38.474329,,,0,,,,POINT (-38.474329 -3.732841),106.0,VICENTE PINZON
1879,,"AVENIDA CESAR CALS, 1297",,-3.728992,-38.460222,,,0,,,,POINT (-38.460222 -3.728992),106.0,VICENTE PINZON
1882,,"RUA HERMINIA BONAVIDES, SN",,-3.731004,-38.462914,,,0,,,,POINT (-38.462914 -3.731004),106.0,VICENTE PINZON
1884,,"AVENIDA ENG ALBERTO SA, 891",,-3.734306,-38.469367,,,0,,,,POINT (-38.469367 -3.734306),106.0,VICENTE PINZON
1885,,"AVENIDA ENG ALBERTO SA, 911",,-3.734726,-38.469477,,,0,,,,POINT (-38.469477 -3.734726),107.0,DE LOURDES
1886,,"AVENIDA HERMINIA BONAVIDES, 555",,-3.732484,-38.466369,,,0,,,,POINT (-38.466369 -3.732484),106.0,VICENTE PINZON
1887,,"AVENIDA HERMINIA BONAVIDES, 555",,-3.732352,-38.465943,,,0,,,,POINT (-38.465943 -3.732352),107.0,DE LOURDES
1888,,"RUA RENATO BRAGA, 200",,-3.732464,-38.460991,,,0,,,,POINT (-38.460991 -3.732464),106.0,VICENTE PINZON
1889,,"RUA RENATO BRAGA, 203",,-3.732341,-38.460743,,,0,,,,POINT (-38.460743 -3.732341),106.0,VICENTE PINZON
189,,"RUA CON CASTRO, S/N",,-3.786789,-38.575067,,,0,,,,POINT (-38.575067 -3.786789),83.0,VILA PERI
1890,,"RUA RENATO BRAGA, SN",,-3.732521,-38.462814,,,0,,,,POINT (-38.462814 -3.732521),74.0,PRAIA DO FUTURO I
1891,,"RUA RENATO BRAGA, 1701",,-3.732558,-38.462717,,,0,,,,POINT (-38.462717 -3.732558),74.0,PRAIA DO FUTURO I
1892,,"AVENIDA CESAR CALS, 1331",,-3.729628,-38.459876,,,0,,,,POINT (-38.459876 -3.729628),106.0,VICENTE PINZON
1893,,"RUA RENATO BRAGA, 190",,-3.731575,-38.459191,,,0,,,,POINT (-38.459191 -3.731575),106.0,VICENTE PINZON
1894,,"RUA RENATO BRAGA, 199",,-3.73164,-38.45932,,,0,,,,POINT (-38.45932 -3.73164),106.0,VICENTE PINZON
1895,,"AVENIDA DIOGUINHO, 1705",,-3.732085,-38.458529,,,0,,,,POINT (-38.458529 -3.732085),74.0,PRAIA DO FUTURO I
1896,,"AVENIDA DIOGUINHO, 1850",,-3.733068,-38.457993,,,0,,,,POINT (-38.457993 -3.733068),74.0,PRAIA DO FUTURO I
1898,,"RUA HIPOLITO PAMPLONA, 16 A",,-3.739517,-38.596965,,,0,,,,POINT (-38.596965 -3.739517),70.0,ANTÔNIO BEZERRA
1899,,"AVENIDA MISTER HULL, 104",,-3.740309,-38.596684,,,0,,,,POINT (-38.596684 -3.740309),70.0,ANTÔNIO BEZERRA
19,,"AVENIDA CEL CARVALHO, 599",,-3.708152,-38.590294,,,0,,,,POINT (-38.590294 -3.708152),59.0,BARRA DO CEARÁ
190,,"RUA CON CASTRO, 1230",,-3.782896,-38.571483,,,0,,,,POINT (-38.571483 -3.782896),87.0,PARANGABA
1900,,"AVENIDA MISTER HULL, 565",,-3.740043,-38.594915,,,0,,,,POINT (-38.594915 -3.740043),70.0,ANTÔNIO BEZERRA
1901,,"RUA PDE PERDIGAO SAMPAIO, 330",,-3.739244,-38.594756,,,0,,,,POINT (-38.594756 -3.739244),70.0,ANTÔNIO BEZERRA
1902,,"RUA ANARIO BRAGA, 844",,-3.73688,-38.593435,,,0,,,,POINT (-38.593435 -3.73688),70.0,ANTÔNIO BEZERRA
1904,,"AVENIDA MIT HULL, 5557",,-3.74012,-38.594082,,,0,,,,POINT (-38.594082 -3.74012),70.0,ANTÔNIO BEZERRA
1906,,"RUA ANARIO BRAGA, 709",,-3.7372,-38.592256,,,0,,,,POINT (-38.592256 -3.7372),70.0,ANTÔNIO BEZERRA
1907,,"RUA MANUEL NUNES, 120",,-3.737248,-38.591463,,,0,,,,POINT (-38.591463 -3.737248),70.0,ANTÔNIO BEZERRA
1908,,"AVENIDA MISTER HULL, 5168",,-3.739399,-38.590584,,,0,,,,POINT (-38.590584 -3.739399),70.0,ANTÔNIO BEZERRA
1909,,"RUA MANUEL NUNES, 120",,-3.737108,-38.591144,,,0,,,,POINT (-38.591144 -3.737108),70.0,ANTÔNIO BEZERRA
191,,"RUA NEREU RAMOS, S/N",,-3.786274,-38.569486,,,0,,,,POINT (-38.569486 -3.786274),87.0,PARANGABA
1910,,"AVENIDA MIT HULL, 5151",,-3.739572,-38.590388,,,0,,,,POINT (-38.590388 -3.739572),70.0,ANTÔNIO BEZERRA
1914,,"RUA CEL JOAQUIM FRANKLIN, 911",,-3.743535,-38.595183,,,0,,,,POINT (-38.595183 -3.743535),70.0,ANTÔNIO BEZERRA
1915,,"RUA HIPOLITO PAMPLONA, 333",,-3.744114,-38.596253,,,0,,,,POINT (-38.596253 -3.744114),70.0,ANTÔNIO BEZERRA
1918,,"RUA PDE PERDIGAO SAMPAIO, 689",,-3.742909,-38.594235,,,0,,,,POINT (-38.594235 -3.742909),70.0,ANTÔNIO BEZERRA
1919,,"RUA HUGO VITOR, 319",,-3.742163,-38.591259,,,0,,,,POINT (-38.591259 -3.742163),70.0,ANTÔNIO BEZERRA
1920,,"RUA HUGO VITOR, 463",,-3.743887,-38.591016,,,0,,,,POINT (-38.591016 -3.743887),70.0,ANTÔNIO BEZERRA
1921,,"RUA TEN QUEIROZ, 497",,-3.745106,-38.590583,,,0,,,,POINT (-38.590583 -3.745106),70.0,ANTÔNIO BEZERRA
1922,,"RUA JOAQUIM NOGUEIRA, 655",,-3.745159,-38.589701,,,0,,,,POINT (-38.589701 -3.745159),70.0,ANTÔNIO BEZERRA
1923,,"RUA TEN QUEIROZ, 667",,-3.745329,-38.592164,,,0,,,,POINT (-38.592164 -3.745329),70.0,ANTÔNIO BEZERRA
1926,,"AVENIDA OSCAR ARARIPE, 3158",,-3.785057,-38.618744,,,0,,,,POINT (-38.618744 -3.785057),91.0,GRANJA LISBOA
193,,"RUA CON CASTRO, SN",,-3.788182,-38.576365,,,0,,,,POINT (-38.576365 -3.788182),83.0,VILA PERI
1932,,"RUA FRANCISCO PAIVA, 848",,-3.789324,-38.613788,,,0,,,,POINT (-38.613788 -3.789324),91.0,GRANJA LISBOA
1933,,"RUA BOM JESUS, 2297",,-3.790473,-38.6134,,,0,,,,POINT (-38.6134 -3.790473),91.0,GRANJA LISBOA
1934,,"RUA BOM JESUS, 2584",,-3.789903,-38.615148,,,0,,,,POINT (-38.615148 -3.789903),91.0,GRANJA LISBOA
1936,,"RUA BOM JESUS, 2822",,-3.788485,-38.619842,,,0,,,,POINT (-38.619842 -3.788485),91.0,GRANJA LISBOA
1937,,"RUA BOM JESUS, 3091",,-3.788209,-38.620803,,,0,,,,POINT (-38.620803 -3.788209),91.0,GRANJA LISBOA
1938,,"RUA JOSE TORRES, 1272",,-3.782171,-38.607877,,,0,,,,POINT (-38.607877 -3.782171),99.0,GRANJA PORTUGAL
1939,,"RUA JOSE TORRES, 1161",,-3.782142,-38.607868,,,0,,,,POINT (-38.607868 -3.782142),99.0,GRANJA PORTUGAL
194,,"RUA CON CASTRO, SN",,-3.787948,-38.576148,,,0,,,,POINT (-38.576148 -3.787948),83.0,VILA PERI
1940,,"RUA CEL VIRGILIO N PAES, 319",,-3.78574,-38.607757,,,0,,,,POINT (-38.607757 -3.78574),99.0,GRANJA PORTUGAL
1941,,"RUA CEL FABRICIANO, 1776",,-3.782814,-38.607621,,,0,,,,POINT (-38.607621 -3.782814),99.0,GRANJA PORTUGAL
1942,,"RUA CEL FABRICIANO, 1651 A",,-3.783339,-38.60578,,,0,,,,POINT (-38.60578 -3.783339),99.0,GRANJA PORTUGAL
1943,,"RUA CEL FABRICIANO, 1355",,-3.783782,-38.604193,,,0,,,,POINT (-38.604193 -3.783782),99.0,GRANJA PORTUGAL
1944,,"RUA CEL FABRICIANO, 1201",,-3.784237,-38.60258,,,0,,,,POINT (-38.60258 -3.784237),99.0,GRANJA PORTUGAL
1946,,"RUA ANTONIO NERY, 1271",,-3.783497,-38.601685,,,0,,,,POINT (-38.601685 -3.783497),99.0,GRANJA PORTUGAL
1948,,"AVENIDA OSCAR ARARIPE, 1019",,-3.790809,-38.60052,,,0,,,,POINT (-38.60052 -3.790809),95.0,BOM JARDIM
195,,"RUA CON CASTRO, 2147",,-3.789315,-38.577406,,,0,,,,POINT (-38.577406 -3.789315),83.0,VILA PERI
1951,,"AVENIDA OSCAR ARARIPE, 1930",,-3.788341,-38.608194,,,0,,,,POINT (-38.608194 -3.788341),95.0,BOM JARDIM
1952,,"RUA CEL VIRGILIO N PAES, 791",,-3.790629,-38.609345,,,0,,,,POINT (-38.609345 -3.790629),95.0,BOM JARDIM
1955,,"AVENIDA OSCAR ARARIPE, 1560",,-3.789117,-38.605823,,,0,,,,POINT (-38.605823 -3.789117),95.0,BOM JARDIM
1958,,"RUA JOSE ABILIO, 786",,-3.783836,-38.598694,,,0,,,,POINT (-38.598694 -3.783836),99.0,GRANJA PORTUGAL
1959,,"RUA MARIA JULIA, 1305",,-3.784445,-38.597519,,,0,,,,POINT (-38.597519 -3.784445),99.0,GRANJA PORTUGAL
196,,"RUA CON CASTRO, 2242",,-3.789657,-38.577721,,,0,,,,POINT (-38.577721 -3.789657),83.0,VILA PERI
1961,,"RUA MARIA JULIA, 42",,-3.785942,-38.597925,,,0,,,,POINT (-38.597925 -3.785942),99.0,GRANJA PORTUGAL
1962,,"AVENIDA PERIMETRAL, 1054",,-3.78528,-38.589942,,,0,,,,POINT (-38.589942 -3.78528),66.0,BONSUCESSO
1965,,"RUA NEREIDE, 740",,-3.787934,-38.597624,,,0,,,,POINT (-38.597624 -3.787934),99.0,GRANJA PORTUGAL
1966,,"RUA NEREIDE, 483",,-3.78856,-38.595606,,,0,,,,POINT (-38.595606 -3.78856),99.0,GRANJA PORTUGAL
1967,,"RUA NEREIDE, 489",,-3.78862,-38.595414,,,0,,,,POINT (-38.595414 -3.78862),99.0,GRANJA PORTUGAL
1968,,"RUA NEREIDE, 321",,-3.789547,-38.592312,,,0,,,,POINT (-38.592312 -3.789547),99.0,GRANJA PORTUGAL
1970,,"RUA JOAO VINTE TRES, 18",,-3.790206,-38.592811,,,0,,,,POINT (-38.592811 -3.790206),99.0,GRANJA PORTUGAL
1971,,"RUA JOAO VINTE TRES, 51",,-3.790088,-38.593193,,,0,,,,POINT (-38.593193 -3.790088),99.0,GRANJA PORTUGAL
1972,,"AVENIDA LUIS VIEIRA, 1223",,-3.787518,-38.589961,,,0,,,,POINT (-38.589961 -3.787518),66.0,BONSUCESSO
1973,,"AVENIDA MISTER HULL, 4856",,-3.739,-38.587893,,,0,,,,POINT (-38.587893 -3.739),70.0,ANTÔNIO BEZERRA
1974,,"AVENIDA MIT HULL, 4869",,-3.739324,-38.587961,,,0,,,,POINT (-38.587961 -3.739324),70.0,ANTÔNIO BEZERRA
1975,,"RUA DOR JOAO GUILHERME, 373",,-3.737512,-38.58848,,,0,,,,POINT (-38.58848 -3.737512),70.0,ANTÔNIO BEZERRA
1977,,"AVENIDA MIT HULL, 4261",,-3.738655,-38.583285,,,0,,,,POINT (-38.583285 -3.738655),115.0,PADRE ANDRADE
1978,,"AVENIDA MISTER HULL, 4465",,-3.738306,-38.583002,,,0,,,,POINT (-38.583002 -3.738306),115.0,PADRE ANDRADE
1979,,"AVENIDA MIT HULL, 4025",,-3.738122,-38.580383,,,0,,,,POINT (-38.580383 -3.738122),115.0,PADRE ANDRADE
198,,"AVENIDA GODOFREDO MACIEL, 841",,-3.783838,-38.565918,,,0,,,,POINT (-38.565918 -3.783838),82.0,ITAPERI
1980,,"AVENIDA MISTER HULL, S/N",,-3.738015,-38.580987,,,0,,,,POINT (-38.580987 -3.738015),115.0,PADRE ANDRADE
1981,,"RUA RUI MONTE, 637",,-3.745591,-38.586523,,,0,,,,POINT (-38.586523 -3.745591),70.0,ANTÔNIO BEZERRA
1982,,"RUA PRO EUGENIO ARRUDA, 683",,-3.745401,-38.586623,,,0,,,,POINT (-38.586623 -3.745401),70.0,ANTÔNIO BEZERRA
1983,,"RUA RUI MONTE, 477",,-3.743063,-38.587277,,,0,,,,POINT (-38.587277 -3.743063),70.0,ANTÔNIO BEZERRA
1984,,"RUA RUI MONTE, 440",,-3.742811,-38.5873,,,0,,,,POINT (-38.5873 -3.742811),70.0,ANTÔNIO BEZERRA
1985,,"RUA RUI MONTE, 305",,-3.742013,-38.587354,,,0,,,,POINT (-38.587354 -3.742013),70.0,ANTÔNIO BEZERRA
1986,,"RUA RUI MONTE, 250",,-3.741533,-38.587391,,,0,,,,POINT (-38.587391 -3.741533),70.0,ANTÔNIO BEZERRA
1988,,"RUA MATOS DOURADO, 509",,-3.741236,-38.585075,,,0,,,,POINT (-38.585075 -3.741236),115.0,PADRE ANDRADE
199,,"RUA PRIMEIRO DE JANEIRO, 96",,-3.785103,-38.565168,,,0,,,,POINT (-38.565168 -3.785103),82.0,ITAPERI
1990,,"RUA CEL MATOS DOURADO, 661",,-3.744682,-38.584854,,,0,,,,POINT (-38.584854 -3.744682),114.0,PICI
1991,,"RUA MATOS DOURADO, 835",,-3.745763,-38.584965,,,0,,,,POINT (-38.584965 -3.745763),112.0,DOM LUSTOSA
1992,,"AVENIDA MISTER HULL, SN",,-3.737803,-38.577956,,,0,,,,POINT (-38.577956 -3.737803),115.0,PADRE ANDRADE
1993,,"AVENIDA MISTER HULL, SN",,-3.737598,-38.577982,,,0,,,,POINT (-38.577982 -3.737598),115.0,PADRE ANDRADE
1994,,"RUA ANDRADE FURTADO, SN",,-3.739361,-38.572353,,,0,,,,POINT (-38.572353 -3.739361),114.0,PICI
1995,,"RUA ANDRADE FURTADO, SN",,-3.739469,-38.572291,,,0,,,,POINT (-38.572291 -3.739469),114.0,PICI
1996,,"AVENIDA MISTER  HULL, SN",,-3.737115,-38.572514,,,0,,,,POINT (-38.572514 -3.737115),114.0,PICI
1997,,"AVENIDA MISTER HULL, 3210",,-3.737085,-38.574095,,,0,,,,POINT (-38.574095 -3.737085),38.0,PRESIDENTE KENNEDY
1999,,"RUA ENG HUMBERTO MONTE, 233",,-3.739194,-38.568849,,,0,,,,POINT (-38.568849 -3.739194),114.0,PICI
20,,"AVENIDA CEL CARVALHO, 612",,-3.708489,-38.59032,,,0,,,,POINT (-38.59032 -3.708489),86.0,VILA VELHA
200,,"AVENIDA GODOFREDO MACIEL, 1184",,-3.786139,-38.56677,,,0,,,,POINT (-38.56677 -3.786139),87.0,PARANGABA
2003,,"AVENIDA MISTER HULL, SN",,-3.73681,-38.571699,,,0,,,,POINT (-38.571699 -3.73681),38.0,PRESIDENTE KENNEDY
2004,,"RUA PRO ARMANDO FARIAS, SN",,-3.745172,-38.576592,,,0,,,,POINT (-38.576592 -3.745172),114.0,PICI
2005,,"RUA AURELIO CAMARA, SN",,-3.742517,-38.574904,,,0,,,,POINT (-38.574904 -3.742517),114.0,PICI
2006,,"RUA PRO ARMANDO FARIAS, UFC",,-3.745135,-38.573142,,,0,,,,POINT (-38.573142 -3.745135),114.0,PICI
2007,,"RUA AURÉLIO CAMARÁ, SN",,-3.742524,-38.574766,,,0,,,,POINT (-38.574766 -3.742524),114.0,PICI
2008,,"RUA ENG HUMBERTO MONTE, 2440",,-3.741276,-38.567315,,,0,,,,POINT (-38.567315 -3.741276),114.0,PICI
201,,"AVENIDA GODOFREDO MACIEL, 1184",,-3.786106,-38.566615,,,0,,,,POINT (-38.566615 -3.786106),82.0,ITAPERI
2011,,"RUA ERICO MOTA, 476",,-3.740067,-38.56203,,,0,,,,POINT (-38.56203 -3.740067),98.0,PARQUELÂNDIA
2013,,"RUA ERICO MOTA, 226",,-3.737937,-38.562462,,,0,,,,POINT (-38.562462 -3.737937),98.0,PARQUELÂNDIA
2014,,"AVENIDA JOVITA FEITOSA, 2680",,-3.74074,-38.561144,,,0,,,,POINT (-38.561144 -3.74074),98.0,PARQUELÂNDIA
2015,,"AVENIDA JOVITA FEITOSA, 2720",,-3.740888,-38.561375,,,0,,,,POINT (-38.561375 -3.740888),49.0,AMADEU FURTADO
2016,,"AVENIDA JOVITA FEITOSA, 2902",,-3.741229,-38.563455,,,0,,,,POINT (-38.563455 -3.741229),98.0,PARQUELÂNDIA
2017,,"AVENIDA JOVITA FEITOSA, 2426",,-3.740314,-38.559022,,,0,,,,POINT (-38.559022 -3.740314),98.0,PARQUELÂNDIA
2018,,"AVENIDA JOVITA FEITOSA, 2423",,-3.740389,-38.55893,,,0,,,,POINT (-38.55893 -3.740389),49.0,AMADEU FURTADO
2019,,"RUA ENG HUMBERTO MONTE, 1999",,-3.743933,-38.564643,,,0,,,,POINT (-38.564643 -3.743933),49.0,AMADEU FURTADO
2020,,"RUA ENG HUMBERTO MONTE, 2035",,-3.742547,-38.565983,,,0,,,,POINT (-38.565983 -3.742547),49.0,AMADEU FURTADO
2021,,"RUA ENG HUMBERTO MONTE, 2290",,-3.742323,-38.566015,,,0,,,,POINT (-38.566015 -3.742323),49.0,AMADEU FURTADO
2022,,"AVENIDA JOVITA FEITOSA, 3116",,-3.741668,-38.565612,,,0,,,,POINT (-38.565612 -3.741668),98.0,PARQUELÂNDIA
2023,,"AVENIDA JOVITA FEITOSA, 3147",,-3.741821,-38.565853,,,0,,,,POINT (-38.565853 -3.741821),49.0,AMADEU FURTADO
2026,,"RUA ERICO MOTA, 582",,-3.741519,-38.561726,,,0,,,,POINT (-38.561726 -3.741519),49.0,AMADEU FURTADO
2027,,"RUA ERICO MOTA, 754",,-3.743397,-38.561335,,,0,,,,POINT (-38.561335 -3.743397),49.0,AMADEU FURTADO
2029,,"RUA AMADEU FURTADO, 944",,-3.743946,-38.562345,,,0,,,,POINT (-38.562345 -3.743946),49.0,AMADEU FURTADO
2030,,"RUA ENG HUMBERTO MONTE, 1735",,-3.745692,-38.563421,,,0,,,,POINT (-38.563421 -3.745692),49.0,AMADEU FURTADO
2031,,"RUA ENG HUMBERTO MONTE, 1730",,-3.745384,-38.563513,,,0,,,,POINT (-38.563513 -3.745384),49.0,AMADEU FURTADO
2032,,"AVENIDA JOVITA FEITOSA, 2879",,-3.74137,-38.563662,,,0,,,,POINT (-38.563662 -3.74137),49.0,AMADEU FURTADO
2033,,"RUA NESTOR BARBOSA, 272",,-3.74457,-38.557981,,,0,,,,POINT (-38.557981 -3.74457),49.0,AMADEU FURTADO
2034,,"RUA PRO LINO ENCARNACAO, 720",,-3.741843,-38.560531,,,0,,,,POINT (-38.560531 -3.741843),49.0,AMADEU FURTADO
2035,,"RUA PRO LINO ENCARNACAO, 960",,-3.74392,-38.560104,,,0,,,,POINT (-38.560104 -3.74392),49.0,AMADEU FURTADO
2036,,"RUA NESTOR BARBOSA, 608",,-3.745059,-38.560375,,,0,,,,POINT (-38.560375 -3.745059),49.0,AMADEU FURTADO
2037,,"RUA ERICO MOTA, 982",,-3.745391,-38.560941,,,0,,,,POINT (-38.560941 -3.745391),49.0,AMADEU FURTADO
2038,,"AVENIDA JOVITA FEITOSA, 1216",,-3.739557,-38.554791,,,0,,,,POINT (-38.554791 -3.739557),49.0,AMADEU FURTADO
2039,,"AVENIDA JOVITA FEITOSA, 1287",,-3.739701,-38.555923,,,0,,,,POINT (-38.555923 -3.739701),98.0,PARQUELÂNDIA
204,,"RUA FAGUNDES VARELA, 551",,-3.783589,-38.56274,,,0,,,,POINT (-38.56274 -3.783589),82.0,ITAPERI
2040,,"AVENIDA JOVITA FEITOSA, 2160",,-3.739973,-38.556852,,,0,,,,POINT (-38.556852 -3.739973),49.0,AMADEU FURTADO
2041,,"AVENIDA JOVITA FEITOSA, 711",,-3.738608,-38.550197,,,0,,,,POINT (-38.550197 -3.738608),0.0,RODOLFO TEÓFILO
2042,,"AVENIDA JOVITA FEITOSA, 1080",,-3.73908,-38.552798,,,0,,,,POINT (-38.552798 -3.73908),98.0,PARQUELÂNDIA
2043,,"AVENIDA JOVITA FEITOSA, 1110",,-3.739184,-38.552908,,,0,,,,POINT (-38.552908 -3.739184),49.0,AMADEU FURTADO
2044,,"AVENIDA JOVITA FEITOSA, 444",,-3.737965,-38.547636,,,0,,,,POINT (-38.547636 -3.737965),15.0,PARQUE ARAXÁ
2045,,"AVENIDA JOVITA FEITOSA, 447",,-3.738115,-38.547879,,,0,,,,POINT (-38.547879 -3.738115),0.0,RODOLFO TEÓFILO
2046,,"AVENIDA JOVITA FEITOSA, 740",,-3.738344,-38.549394,,,0,,,,POINT (-38.549394 -3.738344),15.0,PARQUE ARAXÁ
2051,,"AVENIDA JOVITA FEITOSA, 125",,-3.737565,-38.54531,,,0,,,,POINT (-38.54531 -3.737565),0.0,RODOLFO TEÓFILO
2052,,"AVENIDA JOVITA FEITOSA, 1057",,-3.737549,-38.545631,,,0,,,,POINT (-38.545631 -3.737549),15.0,PARQUE ARAXÁ
2053,,"AVENIDA CARAPINIMA, 2608",,-3.741986,-38.542339,,,0,,,,POINT (-38.542339 -3.741986),51.0,BENFICA
2054,,"AVENIDA 13 DE MAIO, 2821",,-3.739734,-38.540469,,,0,,,,POINT (-38.540469 -3.739734),51.0,BENFICA
2055,,"AVENIDA 13 DE MAIO, 2959",,-3.738947,-38.54152,,,0,,,,POINT (-38.54152 -3.738947),51.0,BENFICA
2056,,"AVENIDA 13 DE MAIO, 3008",,-3.738123,-38.542317,,,0,,,,POINT (-38.542317 -3.738123),51.0,BENFICA
2059,,"RUA TEREZA CRISTINA, 2282",,-3.738604,-38.540327,,,0,,,,POINT (-38.540327 -3.738604),51.0,BENFICA
206,,"RUA JULIO GASPAR, 469",,-3.782236,-38.563325,,,0,,,,POINT (-38.563325 -3.782236),87.0,PARANGABA
2061,,"RUA CARAPINIMA, 1707",,-3.739233,-38.539345,,,0,,,,POINT (-38.539345 -3.739233),51.0,BENFICA
2062,,"AVENIDA DA UNIVERSIDADE, SN",,-3.740636,-38.53882,,,0,,,,POINT (-38.53882 -3.740636),51.0,BENFICA
2063,,"AVENIDA DA UNIVERSIDADE, SN",,-3.740476,-38.538676,,,0,,,,POINT (-38.538676 -3.740476),51.0,BENFICA
2064,,"AVENIDA DA UNIVERSIDADE, SN",,-3.740358,-38.538569,,,0,,,,POINT (-38.538569 -3.740358),51.0,BENFICA
2067,,"AVENIDA JOSE BASTOS, SN",,-3.74523,-38.545759,,,0,,,,POINT (-38.545759 -3.74523),0.0,RODOLFO TEÓFILO
2069,,"AVENIDA DA UNIVERSIDADE, 3229",,-3.74401,-38.541875,,,0,,,,POINT (-38.541875 -3.74401),51.0,BENFICA
2072,,"AVENIDA CARAPINIMA, 2415",,-3.741465,-38.541628,,,0,,,,POINT (-38.541628 -3.741465),51.0,BENFICA
2073,,"RUA PAULINO NOGUEIRA, 77",,-3.74553,-38.535913,,,0,,,,POINT (-38.535913 -3.74553),51.0,BENFICA
2074,,"RUA MAL DEODORO, SN",,-3.743654,-38.536833,,,0,,,,POINT (-38.536833 -3.743654),51.0,BENFICA
2075,,"AVENIDA 13 DE MAIO, SN",,-3.743859,-38.535791,,,0,,,,POINT (-38.535791 -3.743859),51.0,BENFICA
2076,,"AVENIDA 13 DE MAIO, 2298",,-3.742565,-38.537292,,,0,,,,POINT (-38.537292 -3.742565),51.0,BENFICA
2077,,"RUA WALDERY UCHOA, 198",,-3.743876,-38.538757,,,0,,,,POINT (-38.538757 -3.743876),51.0,BENFICA
2078,,"AVENIDA 13 DE MAIO, SN",,-3.741238,-38.538839,,,0,,,,POINT (-38.538839 -3.741238),51.0,BENFICA
2079,,"AVENIDA 13 DE MAIO, SN",,-3.741752,-38.538237,,,0,,,,POINT (-38.538237 -3.741752),51.0,BENFICA
2080,,"AVENIDA 13 DE MAIO, 2400",,-3.741915,-38.538046,,,0,,,,POINT (-38.538046 -3.741915),51.0,BENFICA
2081,,"AVENIDA 13 DE MAIO, SN",,-3.741418,-38.538486,,,0,,,,POINT (-38.538486 -3.741418),51.0,BENFICA
2082,,"RUA MAL DEODORO, 733",,-3.74219,-38.536177,,,0,,,,POINT (-38.536177 -3.74219),51.0,BENFICA
2083,,"RUA SEN POMPEU, 2607",,-3.740694,-38.533797,,,0,,,,POINT (-38.533797 -3.740694),12.0,JOSÉ BONIFÁCIO
2084,,"RUA SEN POMPEU, 2332",,-3.739322,-38.533385,,,0,,,,POINT (-38.533385 -3.739322),12.0,JOSÉ BONIFÁCIO
2085,,"RUA SEN POMPEU, 2062",,-3.736552,-38.532549,,,0,,,,POINT (-38.532549 -3.736552),12.0,JOSÉ BONIFÁCIO
2086,,"RUA DOMINGOS OLIMPIO, 1608 A",,-3.736811,-38.530995,,,0,,,,POINT (-38.530995 -3.736811),12.0,JOSÉ BONIFÁCIO
2087,,"RUA ASSUNCAO, 939",,-3.738181,-38.529875,,,0,,,,POINT (-38.529875 -3.738181),12.0,JOSÉ BONIFÁCIO
2088,,"RUA ASSUNCAO, 1191",,-3.740073,-38.530504,,,0,,,,POINT (-38.530504 -3.740073),12.0,JOSÉ BONIFÁCIO
2089,,"RUA SOLON PINHEIRO, 948",,-3.738649,-38.529066,,,0,,,,POINT (-38.529066 -3.738649),12.0,JOSÉ BONIFÁCIO
209,,"RUA JOSE MENELEU  (D41), 660",,-3.785794,-38.561499,,,0,,,,POINT (-38.561499 -3.785794),82.0,ITAPERI
2091,,"RUA SOLON PINHEIRO, 736",,-3.73691,-38.528478,,,0,,,,POINT (-38.528478 -3.73691),12.0,JOSÉ BONIFÁCIO
2093,,"RUA JAIME BENEVOLO, 839",,-3.739046,-38.527664,,,0,,,,POINT (-38.527664 -3.739046),12.0,JOSÉ BONIFÁCIO
2094,,"RUA JAIME BENEVOLO, 1039",,-3.741065,-38.528336,,,0,,,,POINT (-38.528336 -3.741065),12.0,JOSÉ BONIFÁCIO
2095,,"AVENIDA AGUANAMBI, 90",,-3.741117,-38.525615,,,0,,,,POINT (-38.525615 -3.741117),12.0,JOSÉ BONIFÁCIO
2097,,"RUA DOMINGOS OLIMPIO, 150",,-3.73837,-38.525631,,,0,,,,POINT (-38.525631 -3.73837),12.0,JOSÉ BONIFÁCIO
2098,,"RUA SEN POMPEU, 2768",,-3.74294,-38.534475,,,0,,,,POINT (-38.534475 -3.74294),25.0,FÁTIMA
2099,,"RUA ASSUNCAO, 1337",,-3.741766,-38.531066,,,0,,,,POINT (-38.531066 -3.741766),12.0,JOSÉ BONIFÁCIO
21,,"AVENIDA CEL CARVALHO, 830",,-3.709432,-38.589948,,,0,,,,POINT (-38.589948 -3.709432),59.0,BARRA DO CEARÁ
210,,"RUA PRIMEIRO DE JANEIRO, 595",,-3.786477,-38.560656,,,0,,,,POINT (-38.560656 -3.786477),82.0,ITAPERI
2100,,"RUA ASSUNCAO, 1514",,-3.743247,-38.531571,,,0,,,,POINT (-38.531571 -3.743247),12.0,JOSÉ BONIFÁCIO
2101,,"RUA PDE MIGUELINHO, 835",,-3.743715,-38.530459,,,0,,,,POINT (-38.530459 -3.743715),25.0,FÁTIMA
2102,,"RUA SALDANHA MARINHO, 635",,-3.742697,-38.53009,,,0,,,,POINT (-38.53009 -3.742697),25.0,FÁTIMA
2103,,"RUA FELINO BARROSO, 289",,-3.745213,-38.52841,,,0,,,,POINT (-38.52841 -3.745213),25.0,FÁTIMA
2104,,"RUA FELINO BARROSO, 128",,-3.743459,-38.528614,,,0,,,,POINT (-38.528614 -3.743459),25.0,FÁTIMA
2105,,"RUA FELINO BARROSO, 216",,-3.74478,-38.528457,,,0,,,,POINT (-38.528457 -3.74478),25.0,FÁTIMA
2106,,"RUA CEL SOLON, 441",,-3.743077,-38.5279,,,0,,,,POINT (-38.5279 -3.743077),12.0,JOSÉ BONIFÁCIO
2108,,"AVENIDA AGUANAMBI, 899",,-3.744545,-38.525651,,,0,,,,POINT (-38.525651 -3.744545),25.0,FÁTIMA
2109,,"RUA CEL SOLON, 290 A",,-3.742896,-38.526202,,,0,,,,POINT (-38.526202 -3.742896),25.0,FÁTIMA
211,,"RUA JOSE MENELEU  (D41), 438",,-3.783931,-38.560434,,,0,,,,POINT (-38.560434 -3.783931),82.0,ITAPERI
2112,,"AVENIDA AGUANAMBI, 94",,-3.737729,-38.524315,,,0,,,,POINT (-38.524315 -3.737729),12.0,JOSÉ BONIFÁCIO
2113,,"RUA PDE VALDEVINO, SN",,-3.737348,-38.522479,,,0,,,,POINT (-38.522479 -3.737348),24.0,CENTRO
2115,,"AVENIDA ANTONIO SALES, 145",,-3.739636,-38.521045,,,0,,,,POINT (-38.521045 -3.739636),21.0,JOAQUIM TÁVORA
2119,,"RUA PADRE VALDEVINO, 1071",,-3.739859,-38.514523,,,0,,,,POINT (-38.514523 -3.739859),108.0,ALDEOTA
212,,"RUA JOSE MENELEU  (D41), 194",,-3.782649,-38.559385,,,0,,,,POINT (-38.559385 -3.782649),82.0,ITAPERI
2121,,"RUA ANTONIO AUGUSTO, 2811",,-3.744627,-38.518163,,,0,,,,POINT (-38.518163 -3.744627),21.0,JOAQUIM TÁVORA
2122,,"RUA PINHO PESSOA, 745",,-3.74492,-38.515501,,,0,,,,POINT (-38.515501 -3.74492),21.0,JOAQUIM TÁVORA
2125,,"RUA PDE VALDEVINO, S/N",,-3.740862,-38.51135,,,0,,,,POINT (-38.51135 -3.740862),21.0,JOAQUIM TÁVORA
2126,,"AVENIDA HERACLITO GRACA, 1515",,-3.737844,-38.511562,,,0,,,,POINT (-38.511562 -3.737844),108.0,ALDEOTA
2127,,"AVENIDA HERACLITO GRACA, 1839",,-3.738099,-38.511094,,,0,,,,POINT (-38.511094 -3.738099),108.0,ALDEOTA
2128,,"AVENIDA BAR STUDART, 1490",,-3.737114,-38.507367,,,0,,,,POINT (-38.507367 -3.737114),108.0,ALDEOTA
2129,,"AVENIDA BAR STUDART, 1490",,-3.737372,-38.50753,,,0,,,,POINT (-38.50753 -3.737372),108.0,ALDEOTA
2130,,"AVENIDA BAR STUDART, 1666",,-3.740227,-38.508455,,,0,,,,POINT (-38.508455 -3.740227),108.0,ALDEOTA
2131,,"AVENIDA BAR STUDART, 1966",,-3.740577,-38.508472,,,0,,,,POINT (-38.508472 -3.740577),108.0,ALDEOTA
2132,,"RUA DOR JOSE LOURENCO, 1860",,-3.739913,-38.50947,,,0,,,,POINT (-38.50947 -3.739913),108.0,ALDEOTA
2133,,"AVENIDA JÚLIO VENTURA, 1631",,-3.738874,-38.508768,,,0,,,,POINT (-38.508768 -3.738874),108.0,ALDEOTA
2134,,"AVENIDA JÚLIO VENTURA, 1600",,-3.738576,-38.509308,,,0,,,,POINT (-38.509308 -3.738576),108.0,ALDEOTA
2136,,"AVENIDA JULIO VENTURA, 2267",,-3.74048,-38.504429,,,0,,,,POINT (-38.504429 -3.74048),108.0,ALDEOTA
2137,,"AVENIDA JULIO VENTURA, 110",,-3.739695,-38.506728,,,0,,,,POINT (-38.506728 -3.739695),108.0,ALDEOTA
2139,,"AVENIDA BAR STUDART, 2406",,-3.744544,-38.509754,,,0,,,,POINT (-38.509754 -3.744544),60.0,DIONÍSIO TORRES
214,,"RUA SUECIA, 1012",,-3.783821,-38.557854,,,0,,,,POINT (-38.557854 -3.783821),82.0,ITAPERI
2141,,"AVENIDA BAR STUDART, SN",,-3.742771,-38.509269,,,0,,,,POINT (-38.509269 -3.742771),21.0,JOAQUIM TÁVORA
2142,,"AVENIDA BARRÃO DE TUDART, SN",,-3.743034,-38.50926,,,0,,,,POINT (-38.50926 -3.743034),60.0,DIONÍSIO TORRES
2143,,"RUA DOR JOSE LOURENCO, 2140",,-3.742613,-38.510343,,,0,,,,POINT (-38.510343 -3.742613),21.0,JOAQUIM TÁVORA
2146,,"AVENIDA PADRE ENTÔNIO TOMAS, 150",,-3.739386,-38.502058,,,0,,,,POINT (-38.502058 -3.739386),108.0,ALDEOTA
2147,,"AVENIDA PDE ANTONIO TOMAS, 292",,-3.739719,-38.50102,,,0,,,,POINT (-38.50102 -3.739719),108.0,ALDEOTA
2148,,"AVENIDA DES MOREIRA, 1250",,-3.736591,-38.498553,,,0,,,,POINT (-38.498553 -3.736591),108.0,ALDEOTA
2149,,"AVENIDA DES MOREIRA, SN",,-3.739044,-38.49931,,,0,,,,POINT (-38.49931 -3.739044),108.0,ALDEOTA
2150,,"AVENIDA DESEMBARGADOR MOREIRA, SN",,-3.738981,-38.499196,,,0,,,,POINT (-38.499196 -3.738981),108.0,ALDEOTA
2151,,"RUA TORRES CAMARA, SN",,-3.738046,-38.499481,,,0,,,,POINT (-38.499481 -3.738046),108.0,ALDEOTA
2152,,"AVENIDA SANTOS DUMONT, SN",,-3.736677,-38.497109,,,0,,,,POINT (-38.497109 -3.736677),108.0,ALDEOTA
2153,,"AVENIDA PADRE ANTONIO TOMAS, SN",,-3.740378,-38.499001,,,0,,,,POINT (-38.499001 -3.740378),108.0,ALDEOTA
2154,,"AVENIDA PDE ANTONIO TOMAS, SN",,-3.740385,-38.49898,,,0,,,,POINT (-38.49898 -3.740385),108.0,ALDEOTA
2155,,"AVENIDA EMBRACON, 770",,-3.741002,-38.497067,,,0,,,,POINT (-38.497067 -3.741002),108.0,ALDEOTA
2159,,"RUA PAULA NEI, 365",,-3.740588,-38.494971,,,0,,,,POINT (-38.494971 -3.740588),108.0,ALDEOTA
216,,"RUA JULIO ALCIDES, 132",,-3.788368,-38.565095,,,0,,,,POINT (-38.565095 -3.788368),69.0,MARAPONGA
2160,,"AVENIDA DES MOREIRA, 4300",,-3.741979,-38.500292,,,0,,,,POINT (-38.500292 -3.741979),108.0,ALDEOTA
2162,,"AVENIDA ANTONIO SALES, SN",,-3.745509,-38.502167,,,0,,,,POINT (-38.502167 -3.745509),60.0,DIONÍSIO TORRES
2163,,"AVENIDA DESEMBARGADOR MOREIRA, 2033",,-3.743409,-38.500637,,,0,,,,POINT (-38.500637 -3.743409),108.0,ALDEOTA
2164,,"AVENIDA DES MOREIRA, 2120",,-3.743545,-38.500781,,,0,,,,POINT (-38.500781 -3.743545),108.0,ALDEOTA
2165,,"RUA PDE VALDEVINO, 1687",,-3.744211,-38.500521,,,0,,,,POINT (-38.500521 -3.744211),108.0,ALDEOTA
2166,,"RUA PADRE VALDEVINO, 429",,-3.745369,-38.496936,,,0,,,,POINT (-38.496936 -3.745369),108.0,ALDEOTA
2168,,"RUA LEONARDO MOTA, 1770",,-3.741652,-38.497939,,,0,,,,POINT (-38.497939 -3.741652),108.0,ALDEOTA
2169,,"AVENIDA PDE ANTONIO TOMAS, 841",,-3.741275,-38.496233,,,0,,,,POINT (-38.496233 -3.741275),108.0,ALDEOTA
217,,"RUA NORUEGA, 200",,-3.789665,-38.564801,,,0,,,,POINT (-38.564801 -3.789665),69.0,MARAPONGA
2170,,"AVENIDA PDE ANTONIO TOMAS, 871",,-3.741388,-38.495881,,,0,,,,POINT (-38.495881 -3.741388),108.0,ALDEOTA
2171,,"AVENIDA SEN VIRGILIO TAVORA, 1820",,-3.742344,-38.494994,,,0,,,,POINT (-38.494994 -3.742344),108.0,ALDEOTA
2172,,"AVENIDA PADRE ANTONIO TOMAS, 2030",,-3.741951,-38.49415,,,0,,,,POINT (-38.49415 -3.741951),108.0,ALDEOTA
2173,,"AVENIDA PDE ANTONIO TOMAS, 2030",,-3.741926,-38.494227,,,0,,,,POINT (-38.494227 -3.741926),108.0,ALDEOTA
2174,,"AVENIDA SEN VIRGILIO TAVORA, 1901",,-3.743278,-38.495201,,,0,,,,POINT (-38.495201 -3.743278),108.0,ALDEOTA
2175,,"AVENIDA SEN VIRGILIO TAVORA, 2174",,-3.745338,-38.495858,,,0,,,,POINT (-38.495858 -3.745338),108.0,ALDEOTA
2179,,"AVENIDA SANTOS DUMONT, 3757",,-3.739037,-38.489806,,,0,,,,POINT (-38.489806 -3.739037),108.0,ALDEOTA
218,,"RUA CARLOS JUACABA, 661",,-3.78919,-38.561073,,,0,,,,POINT (-38.561073 -3.78919),56.0,DENDÊ
2185,,"AVENIDA ENG SANTANA JUNIOR, 1185",,-3.737655,-38.483407,,,0,,,,POINT (-38.483407 -3.737655),85.0,PAPICU
2186,,"RUA DES WALDETARIO P MOTA, 949",,-3.738401,-38.481608,,,0,,,,POINT (-38.481608 -3.738401),85.0,PAPICU
2188,,"AVENIDA SANTOS DUMONT, 5283",,-3.740936,-38.483912,,,0,,,,POINT (-38.483912 -3.740936),85.0,PAPICU
219,,"RUA CARLOS JUACABA, 657",,-3.789127,-38.560932,,,0,,,,POINT (-38.560932 -3.789127),56.0,DENDÊ
2191,,"AVENIDA PDE ANTONIO TOMAS, 2420",,-3.743236,-38.490223,,,0,,,,POINT (-38.490223 -3.743236),108.0,ALDEOTA
2192,,"AVENIDA PDE ANTONIO TOMAS, 2291",,-3.742806,-38.491542,,,0,,,,POINT (-38.491542 -3.742806),108.0,ALDEOTA
2193,,"AVENIDA PDE ANTONIO TOMAS, 2233",,-3.742531,-38.492384,,,0,,,,POINT (-38.492384 -3.742531),108.0,ALDEOTA
2195,,"AVENIDA ALM HENRIQUE SABÓIA, 4114",,-3.745195,-38.490604,,,0,,,,POINT (-38.490604 -3.745195),6.0,COCÓ
2197,,"AVENIDA ENG SANTANA JUNIOR, 1901",,-3.74248,-38.486456,,,0,,,,POINT (-38.486456 -3.74248),6.0,COCÓ
220,,"RUA CARLOS JUACABA, 1435",,-3.791183,-38.561822,,,0,,,,POINT (-38.561822 -3.791183),56.0,DENDÊ
2201,,"RUA ANDRADE FURTADO, 515",,-3.744147,-38.484779,,,0,,,,POINT (-38.484779 -3.744147),6.0,COCÓ
2202,,"RUA ANDRADE FURTADO, 764",,-3.744786,-38.482624,,,0,,,,POINT (-38.482624 -3.744786),6.0,COCÓ
2203,,"RUA DES WALDETARIO P MOTA, 1517",,-3.742331,-38.484094,,,0,,,,POINT (-38.484094 -3.742331),6.0,COCÓ
2204,,"RUA DR GILBERTO STUDART, 630",,-3.743046,-38.482722,,,0,,,,POINT (-38.482722 -3.743046),6.0,COCÓ
2205,,"RUA JULIO AZEVEDO, 1516",,-3.743359,-38.48254,,,0,,,,POINT (-38.48254 -3.743359),6.0,COCÓ
2206,,"RUA JULIO AZEVEDO, 1345",,-3.742025,-38.481694,,,0,,,,POINT (-38.481694 -3.742025),6.0,COCÓ
2207,,"RUA DOR GILBERTO STUDART, 424",,-3.742467,-38.48452,,,0,,,,POINT (-38.48452 -3.742467),6.0,COCÓ
221,,"AVENIDA FRANCISCO SA, 5705",,-3.711183,-38.575577,,,0,,,,POINT (-38.575577 -3.711183),65.0,FLORESTA
2210,,"RUA LAURO NOGUEIRA, 1165",,-3.740765,-38.476181,,,0,,,,POINT (-38.476181 -3.740765),85.0,PAPICU
2212,,"RUA LAURO NOGUEIRA, 865",,-3.740237,-38.47783,,,0,,,,POINT (-38.47783 -3.740237),85.0,PAPICU
2213,,"RUA ANDRE DALL OCIO, 926",,-3.740352,-38.476619,,,0,,,,POINT (-38.476619 -3.740352),85.0,PAPICU
